{
"type": "FeatureCollection",
"name": "budapest_bars",
"crs": { "type": "name", "properties": { "name": "urn:ogc:def:crs:OGC:1.3:CRS84" } },
"features": [
{ "type": "Feature", "properties": { "place_id": "ChIJx0eU_uDEQUcRwDaUKjnCANA", "rating": null, "nr_ratings": null }, "geometry": { "type": "Point", "coordinates": [ 19.1967208, 47.532197 ] } },
{ "type": "Feature", "properties": { "place_id": "ChIJZYwmScnFQUcREn8JAw0PyIE", "rating": null, "nr_ratings": null }, "geometry": { "type": "Point", "coordinates": [ 19.2040885, 47.5260033 ] } },
{ "type": "Feature", "properties": { "place_id": "ChIJoxIOMvvCQUcR_mKC1vrTi00", "rating": null, "nr_ratings": null }, "geometry": { "type": "Point", "coordinates": [ 19.1539951, 47.4540712 ] } },
{ "type": "Feature", "properties": { "place_id": "ChIJr-72e3fDQUcR63jCzlNzrDg", "rating": 5.0, "nr_ratings": 1.0 }, "geometry": { "type": "Point", "coordinates": [ 19.1457789, 47.4578377 ] } },
{ "type": "Feature", "properties": { "place_id": "ChIJxYGMie_CQUcRIbE-tYqbQgY", "rating": null, "nr_ratings": null }, "geometry": { "type": "Point", "coordinates": [ 19.1495943, 47.45152 ] } },
{ "type": "Feature", "properties": { "place_id": "ChIJyVuCTW_dQUcRHHIwZ5hpE4Q", "rating": null, "nr_ratings": null }, "geometry": { "type": "Point", "coordinates": [ 19.1515938, 47.4544761 ] } },
{ "type": "Feature", "properties": { "place_id": "ChIJWTCAyOTCQUcRfBNv_20fPp8", "rating": 5.0, "nr_ratings": 20.0 }, "geometry": { "type": "Point", "coordinates": [ 19.1529012, 47.454395899999987 ] } },
{ "type": "Feature", "properties": { "place_id": "ChIJ6f2a5eTCQUcRVN-M3Shc3Xo", "rating": 4.3, "nr_ratings": 62.0 }, "geometry": { "type": "Point", "coordinates": [ 19.1513669, 47.4544427 ] } },
{ "type": "Feature", "properties": { "place_id": "ChIJlSgP8zTBQUcRXO0OfyEEVUE", "rating": 4.6, "nr_ratings": 22.0 }, "geometry": { "type": "Point", "coordinates": [ 19.2796032, 47.4778129 ] } },
{ "type": "Feature", "properties": { "place_id": "ChIJixfr5zLBQUcRpyd2VNviQCw", "rating": 5.0, "nr_ratings": 1.0 }, "geometry": { "type": "Point", "coordinates": [ 19.2859613, 47.4774568 ] } },
{ "type": "Feature", "properties": { "place_id": "ChIJmfsWJ0XaQUcRBssEBAyeTEU", "rating": null, "nr_ratings": null }, "geometry": { "type": "Point", "coordinates": [ 19.1092136, 47.5628916 ] } },
{ "type": "Feature", "properties": { "place_id": "ChIJYYFvUUPaQUcRALiIS5EagKc", "rating": 4.0, "nr_ratings": 27.0 }, "geometry": { "type": "Point", "coordinates": [ 19.111815, 47.5654436 ] } },
{ "type": "Feature", "properties": { "place_id": "ChIJ5SDbCEzbQUcR7-qgqPTi_HY", "rating": null, "nr_ratings": null }, "geometry": { "type": "Point", "coordinates": [ 19.115678, 47.5629479 ] } },
{ "type": "Feature", "properties": { "place_id": "ChIJUyt1R0PaQUcRg9dDPBd7spo", "rating": null, "nr_ratings": null }, "geometry": { "type": "Point", "coordinates": [ 19.111737, 47.566191 ] } },
{ "type": "Feature", "properties": { "place_id": "ChIJj1lqhFvaQUcRzmcN0eIOFOE", "rating": 5.0, "nr_ratings": 1.0 }, "geometry": { "type": "Point", "coordinates": [ 19.115667, 47.563941 ] } },
{ "type": "Feature", "properties": { "place_id": "ChIJMYbvR0PaQUcRJ4hG4XR9_hs", "rating": null, "nr_ratings": null }, "geometry": { "type": "Point", "coordinates": [ 19.111896, 47.566227 ] } },
{ "type": "Feature", "properties": { "place_id": "ChIJT3b-N2fZQUcRbfDL1pdO_tY", "rating": 4.3, "nr_ratings": 361.0 }, "geometry": { "type": "Point", "coordinates": [ 19.0437024, 47.5419405 ] } },
{ "type": "Feature", "properties": { "place_id": "ChIJHVP9FarZQUcR9uz6S8NYsqg", "rating": null, "nr_ratings": null }, "geometry": { "type": "Point", "coordinates": [ 19.0442957, 47.5454865 ] } },
{ "type": "Feature", "properties": { "place_id": "ChIJpyESP2TZQUcRfuMiyerTuNM", "rating": 5.0, "nr_ratings": 2.0 }, "geometry": { "type": "Point", "coordinates": [ 19.0452325, 47.546964 ] } },
{ "type": "Feature", "properties": { "place_id": "ChIJmarxWlDZQUcRoL5ubKErtmQ", "rating": 5.0, "nr_ratings": 5.0 }, "geometry": { "type": "Point", "coordinates": [ 19.0432052, 47.5463314 ] } },
{ "type": "Feature", "properties": { "place_id": "ChIJ8enHS5vZQUcRXH2Yo7MpDxI", "rating": 4.6, "nr_ratings": 15.0 }, "geometry": { "type": "Point", "coordinates": [ 19.0458948, 47.542056599999988 ] } },
{ "type": "Feature", "properties": { "place_id": "ChIJA6BRXWfZQUcR9VR6-ZvAGaQ", "rating": null, "nr_ratings": null }, "geometry": { "type": "Point", "coordinates": [ 19.0421143, 47.5415506 ] } },
{ "type": "Feature", "properties": { "place_id": "ChIJMwG5FS_DQUcRiKV9CDPg8bI", "rating": 4.8, "nr_ratings": 6.0 }, "geometry": { "type": "Point", "coordinates": [ 19.1488281, 47.44809 ] } },
{ "type": "Feature", "properties": { "place_id": "ChIJdbgG6wHDQUcRG700Eky2pMY", "rating": 5.0, "nr_ratings": 7.0 }, "geometry": { "type": "Point", "coordinates": [ 19.1561296, 47.443348099999987 ] } },
{ "type": "Feature", "properties": { "place_id": "ChIJS9ufUvTCQUcR5Gx6K-6Uc4g", "rating": 1.0, "nr_ratings": 1.0 }, "geometry": { "type": "Point", "coordinates": [ 19.1571246, 47.4433251 ] } },
{ "type": "Feature", "properties": { "place_id": "ChIJw7UqxRTbQUcRG9yn5cTAoyQ", "rating": 1.0, "nr_ratings": 1.0 }, "geometry": { "type": "Point", "coordinates": [ 19.1262063, 47.5276451 ] } },
{ "type": "Feature", "properties": { "place_id": "ChIJVU0CqIXnQUcRwc9M_Xcbz-U", "rating": 5.0, "nr_ratings": 1.0 }, "geometry": { "type": "Point", "coordinates": [ 19.0396155, 47.4173738 ] } },
{ "type": "Feature", "properties": { "place_id": "ChIJG7uyupznQUcRX1ePQ67GPPw", "rating": 4.7, "nr_ratings": 9.0 }, "geometry": { "type": "Point", "coordinates": [ 19.0318978, 47.4200119 ] } },
{ "type": "Feature", "properties": { "place_id": "ChIJ4fyiGdXdQUcRiyInf_Q0mmY", "rating": null, "nr_ratings": null }, "geometry": { "type": "Point", "coordinates": [ 19.014029, 47.4836488 ] } },
{ "type": "Feature", "properties": { "place_id": "ChIJhz8uHyzcQUcRgk48oJuBRoQ", "rating": 4.1, "nr_ratings": 140.0 }, "geometry": { "type": "Point", "coordinates": [ 19.0236129, 47.4882431 ] } },
{ "type": "Feature", "properties": { "place_id": "ChIJawp1OwbdQUcRceXXj0oDeRA", "rating": null, "nr_ratings": null }, "geometry": { "type": "Point", "coordinates": [ 19.06404, 47.467191799999988 ] } },
{ "type": "Feature", "properties": { "place_id": "ChIJnb4U3qvdQUcRxxCi905Ugxc", "rating": 4.4, "nr_ratings": 448.0 }, "geometry": { "type": "Point", "coordinates": [ 19.0574087, 47.472876600000014 ] } },
{ "type": "Feature", "properties": { "place_id": "ChIJp5T3ygvdQUcRaWdcRcxDDp0", "rating": 4.6, "nr_ratings": 14.0 }, "geometry": { "type": "Point", "coordinates": [ 19.0586651, 47.4732224 ] } },
{ "type": "Feature", "properties": { "place_id": "ChIJC6OzQ1vDQUcRUizzs7seTiA", "rating": null, "nr_ratings": null }, "geometry": { "type": "Point", "coordinates": [ 19.1832878, 47.4420756 ] } },
{ "type": "Feature", "properties": { "place_id": "ChIJ557H7dPDQUcRv3aP-VpROTY", "rating": 5.0, "nr_ratings": 1.0 }, "geometry": { "type": "Point", "coordinates": [ 19.1840926, 47.4420128 ] } },
{ "type": "Feature", "properties": { "place_id": "ChIJa_AVzkTCQUcRE1aUpxVBt5s", "rating": 4.0, "nr_ratings": 2.0 }, "geometry": { "type": "Point", "coordinates": [ 19.176671, 47.443712399999988 ] } },
{ "type": "Feature", "properties": { "place_id": "ChIJr5P1SEXCQUcR3qumavCLhx8", "rating": 5.0, "nr_ratings": 1.0 }, "geometry": { "type": "Point", "coordinates": [ 19.176996, 47.444398 ] } },
{ "type": "Feature", "properties": { "place_id": "ChIJyXiqcR3bQUcRmrKSApYrjjE", "rating": null, "nr_ratings": null }, "geometry": { "type": "Point", "coordinates": [ 19.0529788, 47.537802799999987 ] } },
{ "type": "Feature", "properties": { "place_id": "ChIJB2FRzMjnQUcRnMfGsKBTp_0", "rating": 4.5, "nr_ratings": 4.0 }, "geometry": { "type": "Point", "coordinates": [ 19.0528843, 47.4056016 ] } },
{ "type": "Feature", "properties": { "place_id": "ChIJR57k8g7ZQUcRo1WwRH_k88k", "rating": 5.0, "nr_ratings": 5.0 }, "geometry": { "type": "Point", "coordinates": [ 19.0393676, 47.5694093 ] } },
{ "type": "Feature", "properties": { "place_id": "ChIJsZHTB-fnQUcRFQ16Qq3P2go", "rating": 4.6, "nr_ratings": 78.0 }, "geometry": { "type": "Point", "coordinates": [ 19.0720698, 47.4161103 ] } },
{ "type": "Feature", "properties": { "place_id": "ChIJ_wgkS-DnQUcRP2sQqsQCm8g", "rating": 4.1, "nr_ratings": 35.0 }, "geometry": { "type": "Point", "coordinates": [ 19.0800274, 47.4152531 ] } },
{ "type": "Feature", "properties": { "place_id": "ChIJYQ5MMN_nQUcRiOvE6FzL70s", "rating": 4.9, "nr_ratings": 47.0 }, "geometry": { "type": "Point", "coordinates": [ 19.0751973, 47.4090743 ] } },
{ "type": "Feature", "properties": { "place_id": "ChIJbScZ097nQUcRcYiQRiKXu3w", "rating": 4.4, "nr_ratings": 136.0 }, "geometry": { "type": "Point", "coordinates": [ 19.0733602, 47.4087185 ] } },
{ "type": "Feature", "properties": { "place_id": "ChIJ1RtWl8bnQUcRv_dLqCLdBqs", "rating": 4.6, "nr_ratings": 52.0 }, "geometry": { "type": "Point", "coordinates": [ 19.0554837, 47.4104163 ] } },
{ "type": "Feature", "properties": { "place_id": "ChIJazzd1cPnQUcRhTbn6ADbm5s", "rating": null, "nr_ratings": null }, "geometry": { "type": "Point", "coordinates": [ 19.0589372, 47.413631900000013 ] } },
{ "type": "Feature", "properties": { "place_id": "ChIJKXUB5fvDQUcRM8cT23SGcaE", "rating": null, "nr_ratings": null }, "geometry": { "type": "Point", "coordinates": [ 19.2384968, 47.481498 ] } },
{ "type": "Feature", "properties": { "place_id": "ChIJlbjgHQvoQUcRYP6gLC9_YEg", "rating": 4.6, "nr_ratings": 20.0 }, "geometry": { "type": "Point", "coordinates": [ 19.0848159, 47.4136069 ] } },
{ "type": "Feature", "properties": { "place_id": "ChIJAQAAQOPnQUcRirNtr10qtiA", "rating": 3.0, "nr_ratings": 1.0 }, "geometry": { "type": "Point", "coordinates": [ 19.0810207, 47.421535 ] } },
{ "type": "Feature", "properties": { "place_id": "ChIJeQBB-AfoQUcR1wJvxKrAUl4", "rating": 4.0, "nr_ratings": 144.0 }, "geometry": { "type": "Point", "coordinates": [ 19.0871593, 47.4222944 ] } },
{ "type": "Feature", "properties": { "place_id": "ChIJXW2QZwncQUcRbAaKoSHx0Uw", "rating": 4.7, "nr_ratings": 364.0 }, "geometry": { "type": "Point", "coordinates": [ 19.0543555, 47.515138099999987 ] } },
{ "type": "Feature", "properties": { "place_id": "ChIJH7dX_grcQUcRCpqamEvpiTY", "rating": 4.3, "nr_ratings": 501.0 }, "geometry": { "type": "Point", "coordinates": [ 19.0592636, 47.5155379 ] } },
{ "type": "Feature", "properties": { "place_id": "ChIJlxL8hA7cQUcRudl1kPvH1o0", "rating": 3.9, "nr_ratings": 259.0 }, "geometry": { "type": "Point", "coordinates": [ 19.0523521, 47.512124500000013 ] } },
{ "type": "Feature", "properties": { "place_id": "ChIJHS-uaQ3cQUcR6mnyEXp8rrE", "rating": 3.8, "nr_ratings": 558.0 }, "geometry": { "type": "Point", "coordinates": [ 19.056387, 47.509208 ] } },
{ "type": "Feature", "properties": { "place_id": "ChIJNV5I2mfcQUcRvvDRs9AnqdI", "rating": 3.3, "nr_ratings": 3.0 }, "geometry": { "type": "Point", "coordinates": [ 19.05032, 47.512051 ] } },
{ "type": "Feature", "properties": { "place_id": "ChIJxzTFQg3cQUcRO32rfylhpaw", "rating": 4.3, "nr_ratings": 8.0 }, "geometry": { "type": "Point", "coordinates": [ 19.056612, 47.509028 ] } },
{ "type": "Feature", "properties": { "place_id": "ChIJxzTFQg3cQUcRzJcvE-njtR0", "rating": 3.7, "nr_ratings": 151.0 }, "geometry": { "type": "Point", "coordinates": [ 19.056612, 47.509028 ] } },
{ "type": "Feature", "properties": { "place_id": "ChIJMUdSMg_cQUcRkKDYdzKqheY", "rating": 4.8, "nr_ratings": 24.0 }, "geometry": { "type": "Point", "coordinates": [ 19.04976, 47.514266 ] } },
{ "type": "Feature", "properties": { "place_id": "ChIJNX3suQ3cQUcRKWld2RYMcAs", "rating": 4.1, "nr_ratings": 2273.0 }, "geometry": { "type": "Point", "coordinates": [ 19.0542722, 47.5104167 ] } },
{ "type": "Feature", "properties": { "place_id": "ChIJfRs27wncQUcRbR5xZHMrs8Q", "rating": null, "nr_ratings": null }, "geometry": { "type": "Point", "coordinates": [ 19.056487, 47.518029 ] } },
{ "type": "Feature", "properties": { "place_id": "ChIJVRMQOw_cQUcRGGEPSD5yXgE", "rating": 4.2, "nr_ratings": 24.0 }, "geometry": { "type": "Point", "coordinates": [ 19.0490591, 47.513877 ] } },
{ "type": "Feature", "properties": { "place_id": "ChIJI5JQXHLcQUcRO-IW94MlcdA", "rating": 4.4, "nr_ratings": 1387.0 }, "geometry": { "type": "Point", "coordinates": [ 19.0615806, 47.5096278 ] } },
{ "type": "Feature", "properties": { "place_id": "ChIJqR5FcAvcQUcRM3QJ458LwY4", "rating": 4.3, "nr_ratings": 382.0 }, "geometry": { "type": "Point", "coordinates": [ 19.0582618, 47.513122499999987 ] } },
{ "type": "Feature", "properties": { "place_id": "ChIJWQmTYQzcQUcRCqtalHNgJMQ", "rating": 3.9, "nr_ratings": 1347.0 }, "geometry": { "type": "Point", "coordinates": [ 19.0568128, 47.5123892 ] } },
{ "type": "Feature", "properties": { "place_id": "ChIJ7ejSefXdQUcR0jWX3if6OX0", "rating": 5.0, "nr_ratings": 1.0 }, "geometry": { "type": "Point", "coordinates": [ 19.0564576, 47.5122443 ] } },
{ "type": "Feature", "properties": { "place_id": "ChIJ66ZQVwncQUcRA21yTa_3mOo", "rating": 4.7, "nr_ratings": 7.0 }, "geometry": { "type": "Point", "coordinates": [ 19.0542324, 47.5144563 ] } },
{ "type": "Feature", "properties": { "place_id": "ChIJ149A0gvcQUcRSZhC2FfbH8o", "rating": 4.7, "nr_ratings": 108.0 }, "geometry": { "type": "Point", "coordinates": [ 19.0563554, 47.5157868 ] } },
{ "type": "Feature", "properties": { "place_id": "ChIJ81TrQXjdQUcR35hcJg_P7RA", "rating": null, "nr_ratings": null }, "geometry": { "type": "Point", "coordinates": [ 19.0572473, 47.510806900000013 ] } },
{ "type": "Feature", "properties": { "place_id": "ChIJmRuRQondQUcROmcRO4EN6zg", "rating": 5.0, "nr_ratings": 18.0 }, "geometry": { "type": "Point", "coordinates": [ 19.0524107, 47.5142713 ] } },
{ "type": "Feature", "properties": { "place_id": "ChIJsYVBNQncQUcRq3k4EtPbkX4", "rating": null, "nr_ratings": null }, "geometry": { "type": "Point", "coordinates": [ 19.0524107, 47.5142713 ] } },
{ "type": "Feature", "properties": { "place_id": "ChIJZ9DxIhzdQUcRBvEUS7YabP8", "rating": 5.0, "nr_ratings": 2.0 }, "geometry": { "type": "Point", "coordinates": [ 19.052829, 47.511178 ] } },
{ "type": "Feature", "properties": { "place_id": "ChIJkZDXvg3cQUcRjiCk1pkRIEI", "rating": 4.4, "nr_ratings": 7.0 }, "geometry": { "type": "Point", "coordinates": [ 19.0539072, 47.5103625 ] } },
{ "type": "Feature", "properties": { "place_id": "ChIJ1-pABQrcQUcRgG10TIWWVjg", "rating": 4.3, "nr_ratings": 98.0 }, "geometry": { "type": "Point", "coordinates": [ 19.0578349, 47.517620699999988 ] } },
{ "type": "Feature", "properties": { "place_id": "ChIJm100cYLdQUcRMU2HzY3VFTY", "rating": 5.0, "nr_ratings": 1.0 }, "geometry": { "type": "Point", "coordinates": [ 19.0516899, 47.511342199999987 ] } },
{ "type": "Feature", "properties": { "place_id": "ChIJIUmx9Q7cQUcRffBP47v53qI", "rating": 1.0, "nr_ratings": 1.0 }, "geometry": { "type": "Point", "coordinates": [ 19.050943, 47.5119144 ] } },
{ "type": "Feature", "properties": { "place_id": "ChIJsV7HOa7dQUcRD1xHcfJK1vw", "rating": null, "nr_ratings": null }, "geometry": { "type": "Point", "coordinates": [ 19.0620818, 47.511167099999987 ] } },
{ "type": "Feature", "properties": { "place_id": "ChIJAR9KsSPdQUcR8woxqOcD1Xs", "rating": 4.4, "nr_ratings": 65.0 }, "geometry": { "type": "Point", "coordinates": [ 19.0617256, 47.5107994 ] } },
{ "type": "Feature", "properties": { "place_id": "ChIJs_1JcQ7cQUcRBKEYHeJTjcg", "rating": null, "nr_ratings": null }, "geometry": { "type": "Point", "coordinates": [ 19.0518417, 47.510716599999988 ] } },
{ "type": "Feature", "properties": { "place_id": "ChIJg4GnenPcQUcRC3S4rvGMm8I", "rating": 4.4, "nr_ratings": 135.0 }, "geometry": { "type": "Point", "coordinates": [ 19.0632881, 47.5117035 ] } },
{ "type": "Feature", "properties": { "place_id": "ChIJkyLi23LcQUcRGQJm4KVnIDI", "rating": 4.4, "nr_ratings": 171.0 }, "geometry": { "type": "Point", "coordinates": [ 19.0594264, 47.5094547 ] } },
{ "type": "Feature", "properties": { "place_id": "ChIJP0ias0fdQUcRbIboe_5Smj0", "rating": 4.2, "nr_ratings": 42.0 }, "geometry": { "type": "Point", "coordinates": [ 19.056549, 47.5090996 ] } },
{ "type": "Feature", "properties": { "place_id": "ChIJBf1HGYLdQUcR190GpDeN-74", "rating": null, "nr_ratings": null }, "geometry": { "type": "Point", "coordinates": [ 19.0568338, 47.5089944 ] } },
{ "type": "Feature", "properties": { "place_id": "ChIJQ0uzjp3dQUcRaA2m3p2NvvU", "rating": 4.8, "nr_ratings": 17.0 }, "geometry": { "type": "Point", "coordinates": [ 19.0497456, 47.5145237 ] } },
{ "type": "Feature", "properties": { "place_id": "ChIJLcBSAnPcQUcR1vg_RyayvUA", "rating": 3.0, "nr_ratings": 1.0 }, "geometry": { "type": "Point", "coordinates": [ 19.0620671, 47.5100726 ] } },
{ "type": "Feature", "properties": { "place_id": "ChIJXevZMw_cQUcRdEZgMCPGbDc", "rating": 5.0, "nr_ratings": 1.0 }, "geometry": { "type": "Point", "coordinates": [ 19.049622, 47.5143346 ] } },
{ "type": "Feature", "properties": { "place_id": "ChIJP-koBXPcQUcR0YiU0V_tgy4", "rating": 5.0, "nr_ratings": 1.0 }, "geometry": { "type": "Point", "coordinates": [ 19.0621003, 47.5104367 ] } },
{ "type": "Feature", "properties": { "place_id": "ChIJmeFFCYfdQUcRN_4dLUKAp9M", "rating": null, "nr_ratings": null }, "geometry": { "type": "Point", "coordinates": [ 19.0494071, 47.5140868 ] } },
{ "type": "Feature", "properties": { "place_id": "ChIJr1TOXTfdQUcRNf2Tu748L1U", "rating": 5.0, "nr_ratings": 1.0 }, "geometry": { "type": "Point", "coordinates": [ 19.0517999, 47.517439 ] } },
{ "type": "Feature", "properties": { "place_id": "ChIJ37YHz4TdQUcRHErzRhsVH1Y", "rating": 4.4, "nr_ratings": 16.0 }, "geometry": { "type": "Point", "coordinates": [ 19.054431, 47.518838 ] } },
{ "type": "Feature", "properties": { "place_id": "ChIJs4sxcOfdQUcRGyYPYmuQUq4", "rating": 4.5, "nr_ratings": 62.0 }, "geometry": { "type": "Point", "coordinates": [ 19.048898, 47.5143151 ] } },
{ "type": "Feature", "properties": { "place_id": "ChIJuYA9BePZQUcR0hCHAkFf8qc", "rating": 4.6, "nr_ratings": 46.0 }, "geometry": { "type": "Point", "coordinates": [ 19.0701997, 47.5945871 ] } },
{ "type": "Feature", "properties": { "place_id": "ChIJP-rmvr3ZQUcR9ExKfI8rahA", "rating": null, "nr_ratings": null }, "geometry": { "type": "Point", "coordinates": [ 19.062862, 47.596105 ] } },
{ "type": "Feature", "properties": { "place_id": "ChIJ2wXXyfDZQUcRxjTUQk_OIyQ", "rating": null, "nr_ratings": null }, "geometry": { "type": "Point", "coordinates": [ 19.029246, 47.5443241 ] } },
{ "type": "Feature", "properties": { "place_id": "ChIJOX1HczrZQUcRo1D4J0sqUKU", "rating": 4.1, "nr_ratings": 13.0 }, "geometry": { "type": "Point", "coordinates": [ 19.0313446, 47.5461679 ] } },
{ "type": "Feature", "properties": { "place_id": "ChIJcSsnL5vdQUcRL26VVqbXG3U", "rating": 4.3, "nr_ratings": 23.0 }, "geometry": { "type": "Point", "coordinates": [ 19.0371122, 47.4512513 ] } },
{ "type": "Feature", "properties": { "place_id": "ChIJQ-ZiiEDaQUcRVWD_3muyQ9Y", "rating": 4.8, "nr_ratings": 94.0 }, "geometry": { "type": "Point", "coordinates": [ 19.1011274, 47.569187 ] } },
{ "type": "Feature", "properties": { "place_id": "ChIJJTS3mBXaQUcRPqhGhNhvuRc", "rating": null, "nr_ratings": null }, "geometry": { "type": "Point", "coordinates": [ 19.0988761, 47.573554 ] } },
{ "type": "Feature", "properties": { "place_id": "ChIJg9RO0S7cQUcRtJy1N42wZI8", "rating": 4.8, "nr_ratings": 4.0 }, "geometry": { "type": "Point", "coordinates": [ 19.023923, 47.4907309 ] } },
{ "type": "Feature", "properties": { "place_id": "ChIJodPnKS_cQUcRH5dsb_Hc7ms", "rating": 5.0, "nr_ratings": 1.0 }, "geometry": { "type": "Point", "coordinates": [ 19.023923, 47.4907309 ] } },
{ "type": "Feature", "properties": { "place_id": "ChIJJ4MqNvfdQUcRMoWg7wcaw6o", "rating": 4.4, "nr_ratings": 16.0 }, "geometry": { "type": "Point", "coordinates": [ 19.0246652, 47.4927388 ] } },
{ "type": "Feature", "properties": { "place_id": "ChIJK0djhJ3bQUcR4RhNaP3L17I", "rating": 4.6, "nr_ratings": 36.0 }, "geometry": { "type": "Point", "coordinates": [ 19.0976728, 47.5246116 ] } },
{ "type": "Feature", "properties": { "place_id": "ChIJu8eMh_HbQUcRlw2aC18ujaY", "rating": 3.7, "nr_ratings": 3.0 }, "geometry": { "type": "Point", "coordinates": [ 19.1177794, 47.552086599999988 ] } },
{ "type": "Feature", "properties": { "place_id": "ChIJS0X6mALbQUcR5GqHzkrB0Gc", "rating": null, "nr_ratings": null }, "geometry": { "type": "Point", "coordinates": [ 19.1269685, 47.5466685 ] } },
{ "type": "Feature", "properties": { "place_id": "ChIJuwL7BAPcQUcRW2OCVxn9WWg", "rating": 4.5, "nr_ratings": 233.0 }, "geometry": { "type": "Point", "coordinates": [ 19.03634, 47.513867 ] } },
{ "type": "Feature", "properties": { "place_id": "ChIJX0NV46feQUcRDFlgT3Jkmic", "rating": 4.5, "nr_ratings": 198.0 }, "geometry": { "type": "Point", "coordinates": [ 19.0302255, 47.5125908 ] } },
{ "type": "Feature", "properties": { "place_id": "ChIJezT2fafeQUcRDWm6zuHCEvg", "rating": 3.7, "nr_ratings": 370.0 }, "geometry": { "type": "Point", "coordinates": [ 19.0293524, 47.5101811 ] } },
{ "type": "Feature", "properties": { "place_id": "ChIJZddssQPcQUcRLyXSIDA2x8c", "rating": 4.6, "nr_ratings": 142.0 }, "geometry": { "type": "Point", "coordinates": [ 19.036994, 47.5153477 ] } },
{ "type": "Feature", "properties": { "place_id": "ChIJlarPbB7cQUcRqUFM7ZBQ3qg", "rating": 4.6, "nr_ratings": 392.0 }, "geometry": { "type": "Point", "coordinates": [ 19.0291931, 47.5074863 ] } },
{ "type": "Feature", "properties": { "place_id": "ChIJ4z7Q3hvcQUcRrol_JNhsYv8", "rating": 4.6, "nr_ratings": 762.0 }, "geometry": { "type": "Point", "coordinates": [ 19.0369873, 47.5067709 ] } },
{ "type": "Feature", "properties": { "place_id": "ChIJl8BqI9LdQUcR5sDhvmyOmDw", "rating": 5.0, "nr_ratings": 2.0 }, "geometry": { "type": "Point", "coordinates": [ 19.03634, 47.513867 ] } },
{ "type": "Feature", "properties": { "place_id": "ChIJl9fy-wLcQUcRO_v0Q12G3s4", "rating": 3.8, "nr_ratings": 292.0 }, "geometry": { "type": "Point", "coordinates": [ 19.0353742, 47.5141468 ] } },
{ "type": "Feature", "properties": { "place_id": "ChIJIxrecgPcQUcR2YRdz-jb8X4", "rating": 4.4, "nr_ratings": 146.0 }, "geometry": { "type": "Point", "coordinates": [ 19.037461, 47.5137862 ] } },
{ "type": "Feature", "properties": { "place_id": "ChIJiXNT-QLcQUcRMrpT6i5kjtg", "rating": 3.9, "nr_ratings": 29.0 }, "geometry": { "type": "Point", "coordinates": [ 19.035399, 47.514175599999987 ] } },
{ "type": "Feature", "properties": { "place_id": "ChIJ2xHSuRvcQUcREo9117mZRUI", "rating": 4.1, "nr_ratings": 12.0 }, "geometry": { "type": "Point", "coordinates": [ 19.0379943, 47.5079081 ] } },
{ "type": "Feature", "properties": { "place_id": "ChIJhbHt8p7dQUcRZRrMXOOcCtU", "rating": 5.0, "nr_ratings": 1.0 }, "geometry": { "type": "Point", "coordinates": [ 19.03934, 47.513625 ] } },
{ "type": "Feature", "properties": { "place_id": "ChIJz51e2R3cQUcREQ-um5J_tpo", "rating": 4.5, "nr_ratings": 635.0 }, "geometry": { "type": "Point", "coordinates": [ 19.0303834, 47.5080804 ] } },
{ "type": "Feature", "properties": { "place_id": "ChIJ_ZxKjm3dQUcRSI5kT8Wnf3I", "rating": 5.0, "nr_ratings": 9.0 }, "geometry": { "type": "Point", "coordinates": [ 19.0360433, 47.51539 ] } },
{ "type": "Feature", "properties": { "place_id": "ChIJzXqhEBrdQUcRRVTxKr1jMbw", "rating": 4.6, "nr_ratings": 76.0 }, "geometry": { "type": "Point", "coordinates": [ 19.03821, 47.5065719 ] } },
{ "type": "Feature", "properties": { "place_id": "ChIJd3787ZXfQUcRX5c2-VqMwx0", "rating": 2.3, "nr_ratings": 3.0 }, "geometry": { "type": "Point", "coordinates": [ 19.027869, 47.5099574 ] } },
{ "type": "Feature", "properties": { "place_id": "ChIJNZ4XXMTdQUcR92NZF2BbB6c", "rating": 4.9, "nr_ratings": 12.0 }, "geometry": { "type": "Point", "coordinates": [ 19.067284, 47.5098279 ] } },
{ "type": "Feature", "properties": { "place_id": "ChIJgQX1hXPcQUcRSYXJYZQZ8wc", "rating": null, "nr_ratings": null }, "geometry": { "type": "Point", "coordinates": [ 19.0647353, 47.5116468 ] } },
{ "type": "Feature", "properties": { "place_id": "ChIJawlRDCDdQUcRgGI-NMeADVE", "rating": 4.9, "nr_ratings": 27.0 }, "geometry": { "type": "Point", "coordinates": [ 19.0641814, 47.511342799999987 ] } },
{ "type": "Feature", "properties": { "place_id": "ChIJ7RE3q2rdQUcRW72Iu14TbWY", "rating": 5.0, "nr_ratings": 1.0 }, "geometry": { "type": "Point", "coordinates": [ 19.0757464, 47.5109409 ] } },
{ "type": "Feature", "properties": { "place_id": "ChIJT0bjKG7cQUcR1Y4RZfIMBA4", "rating": null, "nr_ratings": null }, "geometry": { "type": "Point", "coordinates": [ 19.0674134, 47.5063646 ] } },
{ "type": "Feature", "properties": { "place_id": "ChIJg2sYoHzdQUcRy84udVxWayM", "rating": 5.0, "nr_ratings": 5.0 }, "geometry": { "type": "Point", "coordinates": [ 19.0639494, 47.507341499999988 ] } },
{ "type": "Feature", "properties": { "place_id": "ChIJ-YEfjEjdQUcRjPNTRgCdzio", "rating": 4.0, "nr_ratings": 4.0 }, "geometry": { "type": "Point", "coordinates": [ 19.0639494, 47.507341499999988 ] } },
{ "type": "Feature", "properties": { "place_id": "ChIJ5Tc59HLcQUcRTxQOPdQQzac", "rating": 4.4, "nr_ratings": 16.0 }, "geometry": { "type": "Point", "coordinates": [ 19.0616682, 47.509001499999989 ] } },
{ "type": "Feature", "properties": { "place_id": "ChIJEWJYbvHFQUcRBfnHUTBp1IU", "rating": 5.0, "nr_ratings": 1.0 }, "geometry": { "type": "Point", "coordinates": [ 19.1785253, 47.5019622 ] } },
{ "type": "Feature", "properties": { "place_id": "ChIJ0SSj6LXCQUcRMVhXASnF0uk", "rating": null, "nr_ratings": null }, "geometry": { "type": "Point", "coordinates": [ 19.110733, 47.447149 ] } },
{ "type": "Feature", "properties": { "place_id": "ChIJdz-EYbnGQUcRCpHqmc4krw4", "rating": 4.6, "nr_ratings": 79.0 }, "geometry": { "type": "Point", "coordinates": [ 19.2780141, 47.4937023 ] } },
{ "type": "Feature", "properties": { "place_id": "ChIJHwmxL7HbQUcRyI_WhWAD2K8", "rating": null, "nr_ratings": null }, "geometry": { "type": "Point", "coordinates": [ 19.0921342, 47.5460189 ] } },
{ "type": "Feature", "properties": { "place_id": "ChIJoyVzocvbQUcR4C7hQzkKEnM", "rating": 4.5, "nr_ratings": 286.0 }, "geometry": { "type": "Point", "coordinates": [ 19.0827918, 47.5519514 ] } },
{ "type": "Feature", "properties": { "place_id": "ChIJ-9B0zFTbQUcRvy2jWj0hB5o", "rating": 4.7, "nr_ratings": 90.0 }, "geometry": { "type": "Point", "coordinates": [ 19.1454316, 47.506696299999987 ] } },
{ "type": "Feature", "properties": { "place_id": "ChIJb0zCRnTeQUcRK86RS-mMkxE", "rating": 4.3, "nr_ratings": 4.0 }, "geometry": { "type": "Point", "coordinates": [ 18.9975051, 47.471250700000013 ] } },
{ "type": "Feature", "properties": { "place_id": "ChIJR-tObWTfQUcRDSJ9ksvokTg", "rating": 5.0, "nr_ratings": 6.0 }, "geometry": { "type": "Point", "coordinates": [ 18.9984237, 47.4773142 ] } },
{ "type": "Feature", "properties": { "place_id": "ChIJ4Yi0mwbcQUcR7oJmFQmzsKk", "rating": 3.6, "nr_ratings": 9.0 }, "geometry": { "type": "Point", "coordinates": [ 19.0433927, 47.5156392 ] } },
{ "type": "Feature", "properties": { "place_id": "ChIJE4PDnPjbQUcRBRxTFykNctA", "rating": 4.3, "nr_ratings": 989.0 }, "geometry": { "type": "Point", "coordinates": [ 19.0466491, 47.5204453 ] } },
{ "type": "Feature", "properties": { "place_id": "ChIJ7453wh3dQUcRC4P-bwxEOe4", "rating": 3.7, "nr_ratings": 9.0 }, "geometry": { "type": "Point", "coordinates": [ 19.0435079, 47.5158474 ] } },
{ "type": "Feature", "properties": { "place_id": "ChIJKWsulgbcQUcRLMZ7sw-mT3M", "rating": 4.3, "nr_ratings": 263.0 }, "geometry": { "type": "Point", "coordinates": [ 19.0431704, 47.5165651 ] } },
{ "type": "Feature", "properties": { "place_id": "ChIJ1fMrVA_cQUcRGZB18MhlRbw", "rating": 4.0, "nr_ratings": 1.0 }, "geometry": { "type": "Point", "coordinates": [ 19.047631, 47.514679 ] } },
{ "type": "Feature", "properties": { "place_id": "ChIJaYDQDKPdQUcRucmjwDehl6A", "rating": 3.8, "nr_ratings": 22.0 }, "geometry": { "type": "Point", "coordinates": [ 19.0485366, 47.5137165 ] } },
{ "type": "Feature", "properties": { "place_id": "ChIJE-ZEcG3dQUcROPsbVn7Y0wo", "rating": 3.0, "nr_ratings": 2.0 }, "geometry": { "type": "Point", "coordinates": [ 19.0466934, 47.5200095 ] } },
{ "type": "Feature", "properties": { "place_id": "ChIJTxtYxC_dQUcR64us1Zz0nxk", "rating": 4.7, "nr_ratings": 47.0 }, "geometry": { "type": "Point", "coordinates": [ 19.0485361, 47.5128263 ] } },
{ "type": "Feature", "properties": { "place_id": "ChIJoXCUQgjcQUcRU8EfABCPhkk", "rating": 4.7, "nr_ratings": 199.0 }, "geometry": { "type": "Point", "coordinates": [ 19.0512666, 47.5176676 ] } },
{ "type": "Feature", "properties": { "place_id": "ChIJYxM5bA_cQUcRnSVoebPrGJw", "rating": 4.6, "nr_ratings": 228.0 }, "geometry": { "type": "Point", "coordinates": [ 19.0482793, 47.5122434 ] } },
{ "type": "Feature", "properties": { "place_id": "ChIJBRlvKALcQUcRrDchGAlKgA8", "rating": null, "nr_ratings": null }, "geometry": { "type": "Point", "coordinates": [ 19.036837, 47.516803499999988 ] } },
{ "type": "Feature", "properties": { "place_id": "ChIJzaM2vgjcQUcRrBYntZotybM", "rating": 4.7, "nr_ratings": 206.0 }, "geometry": { "type": "Point", "coordinates": [ 19.0493106, 47.5159454 ] } },
{ "type": "Feature", "properties": { "place_id": "ChIJGfC6Sw_cQUcRtnX97TQdJwg", "rating": 4.3, "nr_ratings": 29.0 }, "geometry": { "type": "Point", "coordinates": [ 19.0487937, 47.5146819 ] } },
{ "type": "Feature", "properties": { "place_id": "ChIJK7AHSw_cQUcRxPBnSRNYxBE", "rating": null, "nr_ratings": null }, "geometry": { "type": "Point", "coordinates": [ 19.048795, 47.5146452 ] } },
{ "type": "Feature", "properties": { "place_id": "ChIJA3FxxwjcQUcREiqmUKgw51Q", "rating": 5.0, "nr_ratings": 1.0 }, "geometry": { "type": "Point", "coordinates": [ 19.049829, 47.515424 ] } },
{ "type": "Feature", "properties": { "place_id": "ChIJXfAd0wjcQUcRq5w_b9p20Aw", "rating": 5.0, "nr_ratings": 4.0 }, "geometry": { "type": "Point", "coordinates": [ 19.0501822, 47.5146512 ] } },
{ "type": "Feature", "properties": { "place_id": "ChIJ40-q1AjcQUcRojOkUBycyqw", "rating": 4.5, "nr_ratings": 11.0 }, "geometry": { "type": "Point", "coordinates": [ 19.050506, 47.514497 ] } },
{ "type": "Feature", "properties": { "place_id": "ChIJoQDE1gjcQUcR6rAufAtDz0w", "rating": null, "nr_ratings": null }, "geometry": { "type": "Point", "coordinates": [ 19.050825, 47.514848 ] } },
{ "type": "Feature", "properties": { "place_id": "ChIJu8luHQ_cQUcRbssDplrH5PE", "rating": 4.2, "nr_ratings": 422.0 }, "geometry": { "type": "Point", "coordinates": [ 19.0497016, 47.5127882 ] } },
{ "type": "Feature", "properties": { "place_id": "ChIJrdbZb4bdQUcRR-W9D_6A6W0", "rating": 5.0, "nr_ratings": 1.0 }, "geometry": { "type": "Point", "coordinates": [ 19.0492626, 47.5124462 ] } },
{ "type": "Feature", "properties": { "place_id": "ChIJTT5vBA_cQUcRtZtcwt9nO5Y", "rating": 4.2, "nr_ratings": 184.0 }, "geometry": { "type": "Point", "coordinates": [ 19.0494828, 47.5124368 ] } },
{ "type": "Feature", "properties": { "place_id": "ChIJsShwVgjcQUcRABWmRIo5NKM", "rating": 4.6, "nr_ratings": 3120.0 }, "geometry": { "type": "Point", "coordinates": [ 19.0521278, 47.5168641 ] } },
{ "type": "Feature", "properties": { "place_id": "ChIJG8FCqBLcQUcRhFkT7za4wnA", "rating": 4.2, "nr_ratings": 2031.0 }, "geometry": { "type": "Point", "coordinates": [ 19.046452, 47.520014499999988 ] } },
{ "type": "Feature", "properties": { "place_id": "ChIJyXo2JgncQUcRrG87ZuAzEZ8", "rating": 4.4, "nr_ratings": 579.0 }, "geometry": { "type": "Point", "coordinates": [ 19.0515163, 47.5150684 ] } },
{ "type": "Feature", "properties": { "place_id": "ChIJV4yXCgPcQUcRZT9gATgZY5Y", "rating": 4.7, "nr_ratings": 511.0 }, "geometry": { "type": "Point", "coordinates": [ 19.0377235, 47.5140898 ] } },
{ "type": "Feature", "properties": { "place_id": "ChIJ83_-3Q7cQUcR4E-wF0l6Oso", "rating": null, "nr_ratings": null }, "geometry": { "type": "Point", "coordinates": [ 19.0505538, 47.5132241 ] } },
{ "type": "Feature", "properties": { "place_id": "ChIJ2Z-joQ_cQUcRcwiJzybBbWE", "rating": 4.4, "nr_ratings": 695.0 }, "geometry": { "type": "Point", "coordinates": [ 19.0478404, 47.512052 ] } },
{ "type": "Feature", "properties": { "place_id": "ChIJR58uuQjcQUcRU7p4_eG6ma4", "rating": null, "nr_ratings": null }, "geometry": { "type": "Point", "coordinates": [ 19.0494395, 47.5156004 ] } },
{ "type": "Feature", "properties": { "place_id": "ChIJl36kMCbdQUcRxP0tgoxh3Fw", "rating": 3.5, "nr_ratings": 2.0 }, "geometry": { "type": "Point", "coordinates": [ 19.0436521, 47.5152243 ] } },
{ "type": "Feature", "properties": { "place_id": "ChIJ9_0QqwjcQUcRc5sk1fgIfZk", "rating": 4.5, "nr_ratings": 2.0 }, "geometry": { "type": "Point", "coordinates": [ 19.0479273, 47.515035899999987 ] } },
{ "type": "Feature", "properties": { "place_id": "ChIJPw7ZGITdQUcRmW1Qqgit0g8", "rating": null, "nr_ratings": null }, "geometry": { "type": "Point", "coordinates": [ 19.0491559, 47.5155806 ] } },
{ "type": "Feature", "properties": { "place_id": "ChIJd9LRmWHEQUcRWXUsuljppHg", "rating": 4.0, "nr_ratings": 48.0 }, "geometry": { "type": "Point", "coordinates": [ 19.2093158, 47.5084886 ] } },
{ "type": "Feature", "properties": { "place_id": "ChIJgYek5HveQUcRab-9N2mlvhc", "rating": null, "nr_ratings": null }, "geometry": { "type": "Point", "coordinates": [ 18.9997992, 47.4818371 ] } },
{ "type": "Feature", "properties": { "place_id": "ChIJLyMyPinDQUcRJoTwRXrTXQk", "rating": 4.6, "nr_ratings": 40.0 }, "geometry": { "type": "Point", "coordinates": [ 19.2027036, 47.4229398 ] } },
{ "type": "Feature", "properties": { "place_id": "ChIJdU3yQ1rDQUcRZ5858pEIHGU", "rating": null, "nr_ratings": null }, "geometry": { "type": "Point", "coordinates": [ 19.1647788, 47.4778385 ] } },
{ "type": "Feature", "properties": { "place_id": "ChIJ8_LTzWDXQUcRjaJZcXGlyuo", "rating": 2.5, "nr_ratings": 2.0 }, "geometry": { "type": "Point", "coordinates": [ 19.062173, 47.6037589 ] } },
{ "type": "Feature", "properties": { "place_id": "ChIJI2XF29_ZQUcRNdLusbQiQnE", "rating": 4.5, "nr_ratings": 50.0 }, "geometry": { "type": "Point", "coordinates": [ 19.0597871, 47.5976856 ] } },
{ "type": "Feature", "properties": { "place_id": "ChIJleKrb2HXQUcR6KdlAitkH0g", "rating": 4.3, "nr_ratings": 6.0 }, "geometry": { "type": "Point", "coordinates": [ 19.0578477, 47.603117 ] } },
{ "type": "Feature", "properties": { "place_id": "ChIJ3fWNVuDZQUcRjdZaoYxeLno", "rating": 4.8, "nr_ratings": 8.0 }, "geometry": { "type": "Point", "coordinates": [ 19.062783, 47.596591 ] } },
{ "type": "Feature", "properties": { "place_id": "ChIJY5etaODZQUcRl2iJ1agYZRc", "rating": 3.7, "nr_ratings": 33.0 }, "geometry": { "type": "Point", "coordinates": [ 19.0598413, 47.5975708 ] } },
{ "type": "Feature", "properties": { "place_id": "ChIJDyt6HSfZQUcRuYaDFHkxpXU", "rating": 5.0, "nr_ratings": 2.0 }, "geometry": { "type": "Point", "coordinates": [ 19.0451393, 47.558115099999988 ] } },
{ "type": "Feature", "properties": { "place_id": "ChIJgT8YSurZQUcRS-_wqzjuI3M", "rating": 5.0, "nr_ratings": 61.0 }, "geometry": { "type": "Point", "coordinates": [ 19.0465883, 47.5570993 ] } },
{ "type": "Feature", "properties": { "place_id": "ChIJ-bpnTHPoQUcRYGsPyebzUEo", "rating": 4.4, "nr_ratings": 63.0 }, "geometry": { "type": "Point", "coordinates": [ 19.0880701, 47.4112507 ] } },
{ "type": "Feature", "properties": { "place_id": "ChIJ5094FYjcQUcRK4OL8Ylv-zQ", "rating": null, "nr_ratings": null }, "geometry": { "type": "Point", "coordinates": [ 19.0848899, 47.502237699999988 ] } },
{ "type": "Feature", "properties": { "place_id": "ChIJ0SSE1HzcQUcRLUipMYqOjP4", "rating": 4.4, "nr_ratings": 74.0 }, "geometry": { "type": "Point", "coordinates": [ 19.080752, 47.504502 ] } },
{ "type": "Feature", "properties": { "place_id": "ChIJlR1_gkzdQUcR2Nx4eI-nmOk", "rating": null, "nr_ratings": null }, "geometry": { "type": "Point", "coordinates": [ 19.0832132, 47.5014435 ] } },
{ "type": "Feature", "properties": { "place_id": "ChIJY5g3emLcQUcRlIWu5xW1miE", "rating": 4.7, "nr_ratings": 437.0 }, "geometry": { "type": "Point", "coordinates": [ 19.0816478, 47.5012558 ] } },
{ "type": "Feature", "properties": { "place_id": "ChIJpycjcmLcQUcRhhaW3IXY8OE", "rating": 4.1, "nr_ratings": 339.0 }, "geometry": { "type": "Point", "coordinates": [ 19.0812956, 47.5005623 ] } },
{ "type": "Feature", "properties": { "place_id": "ChIJzWM7mmLcQUcRylVnbR86iLE", "rating": 4.0, "nr_ratings": 66.0 }, "geometry": { "type": "Point", "coordinates": [ 19.0823299, 47.5022725 ] } },
{ "type": "Feature", "properties": { "place_id": "ChIJOWeOE2LcQUcRZBhNZWFoL-A", "rating": 4.3, "nr_ratings": 142.0 }, "geometry": { "type": "Point", "coordinates": [ 19.0805884, 47.500205 ] } },
{ "type": "Feature", "properties": { "place_id": "ChIJS33aAGLcQUcRSuQg_ommVYA", "rating": 4.4, "nr_ratings": 369.0 }, "geometry": { "type": "Point", "coordinates": [ 19.0812195, 47.499426799999988 ] } },
{ "type": "Feature", "properties": { "place_id": "ChIJO_M0PojcQUcRcrVeYTCPQI8", "rating": 4.2, "nr_ratings": 155.0 }, "geometry": { "type": "Point", "coordinates": [ 19.0848171, 47.5022003 ] } },
{ "type": "Feature", "properties": { "place_id": "ChIJNxOjFmLcQUcRsnH9n8YCB0g", "rating": 4.3, "nr_ratings": 204.0 }, "geometry": { "type": "Point", "coordinates": [ 19.0802878, 47.500103499999987 ] } },
{ "type": "Feature", "properties": { "place_id": "ChIJS4_KlYjcQUcRcuSLMrZbBqc", "rating": 4.4, "nr_ratings": 7.0 }, "geometry": { "type": "Point", "coordinates": [ 19.085628, 47.501960800000013 ] } },
{ "type": "Feature", "properties": { "place_id": "ChIJ0eC8qi7dQUcRn5b6gVrRc-A", "rating": null, "nr_ratings": null }, "geometry": { "type": "Point", "coordinates": [ 19.0784612, 47.5006311 ] } },
{ "type": "Feature", "properties": { "place_id": "ChIJDRM65GHcQUcRxWZNCLXMpSI", "rating": null, "nr_ratings": null }, "geometry": { "type": "Point", "coordinates": [ 19.0799211, 47.4983474 ] } },
{ "type": "Feature", "properties": { "place_id": "ChIJyZR1-7DdQUcRqygrZ3bOZkI", "rating": 5.0, "nr_ratings": 7.0 }, "geometry": { "type": "Point", "coordinates": [ 19.0856558, 47.5039473 ] } },
{ "type": "Feature", "properties": { "place_id": "ChIJP8DRpYzdQUcRjuVon099NfY", "rating": 4.9, "nr_ratings": 11.0 }, "geometry": { "type": "Point", "coordinates": [ 19.0855891, 47.5040111 ] } },
{ "type": "Feature", "properties": { "place_id": "ChIJYcgH3YfcQUcRuSs1fsY86ho", "rating": null, "nr_ratings": null }, "geometry": { "type": "Point", "coordinates": [ 19.0863176, 47.503715799999988 ] } },
{ "type": "Feature", "properties": { "place_id": "ChIJeTyyXH3cQUcRDG4MGjtRaF8", "rating": null, "nr_ratings": null }, "geometry": { "type": "Point", "coordinates": [ 19.0838752, 47.5046054 ] } },
{ "type": "Feature", "properties": { "place_id": "ChIJCxvZEyjdQUcRmTkwWR3_RFI", "rating": 3.8, "nr_ratings": 6.0 }, "geometry": { "type": "Point", "coordinates": [ 19.0812212, 47.5044407 ] } },
{ "type": "Feature", "properties": { "place_id": "ChIJT9ho1IfcQUcR3DKm7pLhQrg", "rating": 4.6, "nr_ratings": 24.0 }, "geometry": { "type": "Point", "coordinates": [ 19.087339, 47.5033649 ] } },
{ "type": "Feature", "properties": { "place_id": "ChIJ3xoiCK3dQUcRPhJzJ4C1k8Y", "rating": null, "nr_ratings": null }, "geometry": { "type": "Point", "coordinates": [ 19.080701, 47.5045414 ] } },
{ "type": "Feature", "properties": { "place_id": "ChIJRR253GPcQUcRsNXV0xPAYRI", "rating": null, "nr_ratings": null }, "geometry": { "type": "Point", "coordinates": [ 19.0766846, 47.5003618 ] } },
{ "type": "Feature", "properties": { "place_id": "ChIJoaf_sofcQUcRYGlVZnadl_w", "rating": 4.2, "nr_ratings": 428.0 }, "geometry": { "type": "Point", "coordinates": [ 19.0884056, 47.5046297 ] } },
{ "type": "Feature", "properties": { "place_id": "ChIJvbGefmPcQUcR9GUkDeC8Vlk", "rating": null, "nr_ratings": null }, "geometry": { "type": "Point", "coordinates": [ 19.0761433, 47.5033805 ] } },
{ "type": "Feature", "properties": { "place_id": "ChIJ4fDFaibdQUcRXbtRZw0hW9U", "rating": 4.5, "nr_ratings": 24.0 }, "geometry": { "type": "Point", "coordinates": [ 19.0880309, 47.5049467 ] } },
{ "type": "Feature", "properties": { "place_id": "ChIJyziwxOTcQUcR0H5BrAzVxyQ", "rating": 4.5, "nr_ratings": 110.0 }, "geometry": { "type": "Point", "coordinates": [ 19.08402, 47.480069 ] } },
{ "type": "Feature", "properties": { "place_id": "ChIJie4H5UvdQUcRL85pkvSMn50", "rating": 4.7, "nr_ratings": 15.0 }, "geometry": { "type": "Point", "coordinates": [ 19.0430268, 47.4941177 ] } },
{ "type": "Feature", "properties": { "place_id": "ChIJSygMrTncQUcRjXPbZGobD0Q", "rating": 4.6, "nr_ratings": 349.0 }, "geometry": { "type": "Point", "coordinates": [ 19.0422343, 47.4927073 ] } },
{ "type": "Feature", "properties": { "place_id": "ChIJD318GRPdQUcRuEdDp7PCMTA", "rating": 5.0, "nr_ratings": 1.0 }, "geometry": { "type": "Point", "coordinates": [ 19.0401709, 47.4979008 ] } },
{ "type": "Feature", "properties": { "place_id": "ChIJ-29EUDzcQUcR0G18nYlStTE", "rating": null, "nr_ratings": null }, "geometry": { "type": "Point", "coordinates": [ 19.0401709, 47.4979008 ] } },
{ "type": "Feature", "properties": { "place_id": "ChIJIfnjJ9vdQUcRE7gBM2i67W8", "rating": null, "nr_ratings": null }, "geometry": { "type": "Point", "coordinates": [ 19.040235, 47.497912 ] } },
{ "type": "Feature", "properties": { "place_id": "ChIJCQvB0HbdQUcRoYV_UyRI-ko", "rating": 4.0, "nr_ratings": 430.0 }, "geometry": { "type": "Point", "coordinates": [ 19.0400941, 47.498633100000013 ] } },
{ "type": "Feature", "properties": { "place_id": "ChIJ8f-vED3cQUcRggayEzhcFpg", "rating": 4.7, "nr_ratings": 84.0 }, "geometry": { "type": "Point", "coordinates": [ 19.0395282, 47.4992814 ] } },
{ "type": "Feature", "properties": { "place_id": "ChIJLTlgOD3cQUcRr-m51i4BGnU", "rating": 4.5, "nr_ratings": 339.0 }, "geometry": { "type": "Point", "coordinates": [ 19.0383357, 47.4999707 ] } },
{ "type": "Feature", "properties": { "place_id": "ChIJN6Rhd1jZQUcRVNTxrALca-8", "rating": 4.9, "nr_ratings": 11.0 }, "geometry": { "type": "Point", "coordinates": [ 19.0446546, 47.5326374 ] } },
{ "type": "Feature", "properties": { "place_id": "ChIJQ2aLQlfZQUcRzGkVz59seVc", "rating": null, "nr_ratings": null }, "geometry": { "type": "Point", "coordinates": [ 19.038175, 47.5312123 ] } },
{ "type": "Feature", "properties": { "place_id": "ChIJo97wOWzZQUcRLPbQn6gM02o", "rating": 5.0, "nr_ratings": 13.0 }, "geometry": { "type": "Point", "coordinates": [ 19.038235, 47.529977 ] } },
{ "type": "Feature", "properties": { "place_id": "ChIJh3iwEFfZQUcRhS49dPpMnpU", "rating": null, "nr_ratings": null }, "geometry": { "type": "Point", "coordinates": [ 19.0380743, 47.5299711 ] } },
{ "type": "Feature", "properties": { "place_id": "ChIJBXJ6CFrZQUcRH8_pjjV4dik", "rating": 4.5, "nr_ratings": 134.0 }, "geometry": { "type": "Point", "coordinates": [ 19.0363265, 47.5324958 ] } },
{ "type": "Feature", "properties": { "place_id": "ChIJK-mT4ljZQUcRar4NHyELfJM", "rating": null, "nr_ratings": null }, "geometry": { "type": "Point", "coordinates": [ 19.042843, 47.533962 ] } },
{ "type": "Feature", "properties": { "place_id": "ChIJJT-xq1fZQUcRcq8xtjbHsx4", "rating": 4.2, "nr_ratings": 168.0 }, "geometry": { "type": "Point", "coordinates": [ 19.0393587, 47.529298399999988 ] } },
{ "type": "Feature", "properties": { "place_id": "ChIJM65dYFnZQUcRmZBCgfpwhmg", "rating": 4.7, "nr_ratings": 429.0 }, "geometry": { "type": "Point", "coordinates": [ 19.0396757, 47.5353556 ] } },
{ "type": "Feature", "properties": { "place_id": "ChIJRbp0VVbZQUcRWdbBs1WxA3w", "rating": null, "nr_ratings": null }, "geometry": { "type": "Point", "coordinates": [ 19.0387313, 47.528989499999987 ] } },
{ "type": "Feature", "properties": { "place_id": "ChIJ6Z93tjHZQUcRSkKjOZIbiFc", "rating": 5.0, "nr_ratings": 2.0 }, "geometry": { "type": "Point", "coordinates": [ 19.0401312, 47.5354032 ] } },
{ "type": "Feature", "properties": { "place_id": "ChIJ79NpXFfZQUcRw3u2yqj57f8", "rating": 4.6, "nr_ratings": 25.0 }, "geometry": { "type": "Point", "coordinates": [ 19.0382359, 47.531433799999988 ] } },
{ "type": "Feature", "properties": { "place_id": "ChIJX-4naVfZQUcRF_jCpP_F2lw", "rating": 4.3, "nr_ratings": 26.0 }, "geometry": { "type": "Point", "coordinates": [ 19.0384817, 47.5310016 ] } },
{ "type": "Feature", "properties": { "place_id": "ChIJ4XfWQlfZQUcRQepbmMik4GA", "rating": null, "nr_ratings": null }, "geometry": { "type": "Point", "coordinates": [ 19.0382085, 47.531208799999987 ] } },
{ "type": "Feature", "properties": { "place_id": "ChIJQUpMr1nZQUcRkAJ-QBm4WBs", "rating": 4.1, "nr_ratings": 42.0 }, "geometry": { "type": "Point", "coordinates": [ 19.041077, 47.533584 ] } },
{ "type": "Feature", "properties": { "place_id": "ChIJpd2CRFfZQUcRtNEPFxVXb9Q", "rating": 5.0, "nr_ratings": 1.0 }, "geometry": { "type": "Point", "coordinates": [ 19.0379374, 47.5311414 ] } },
{ "type": "Feature", "properties": { "place_id": "ChIJ6d2CRFfZQUcRas9vdYqQTn8", "rating": 5.0, "nr_ratings": 1.0 }, "geometry": { "type": "Point", "coordinates": [ 19.0379369, 47.531141299999987 ] } },
{ "type": "Feature", "properties": { "place_id": "ChIJmf9HSFrZQUcRb6Q9fAcfdxU", "rating": null, "nr_ratings": null }, "geometry": { "type": "Point", "coordinates": [ 19.0364439, 47.534217 ] } },
{ "type": "Feature", "properties": { "place_id": "ChIJXSLUBFrZQUcRjB3yX6SvmGk", "rating": 4.3, "nr_ratings": 78.0 }, "geometry": { "type": "Point", "coordinates": [ 19.036935, 47.532701800000012 ] } },
{ "type": "Feature", "properties": { "place_id": "ChIJvye-PlfZQUcRWh1U1R54DpE", "rating": null, "nr_ratings": null }, "geometry": { "type": "Point", "coordinates": [ 19.037558, 47.530453 ] } },
{ "type": "Feature", "properties": { "place_id": "ChIJS0CEEFfZQUcRta9qlt_ARAs", "rating": 4.0, "nr_ratings": 4.0 }, "geometry": { "type": "Point", "coordinates": [ 19.038235, 47.529977 ] } },
{ "type": "Feature", "properties": { "place_id": "ChIJV7ToKR7DQUcRmvOd8xX1LPM", "rating": 4.3, "nr_ratings": 803.0 }, "geometry": { "type": "Point", "coordinates": [ 19.1490616, 47.4622946 ] } },
{ "type": "Feature", "properties": { "place_id": "ChIJ6WYsJuDCQUcRyhhvdcN7SrQ", "rating": 4.7, "nr_ratings": 249.0 }, "geometry": { "type": "Point", "coordinates": [ 19.1468281, 47.4621267 ] } },
{ "type": "Feature", "properties": { "place_id": "ChIJUWAjNz7CQUcRlzLSTYood5I", "rating": null, "nr_ratings": null }, "geometry": { "type": "Point", "coordinates": [ 19.1896721, 47.435539299999988 ] } },
{ "type": "Feature", "properties": { "place_id": "ChIJXZmTKT3CQUcR3gmHOwoJFXQ", "rating": null, "nr_ratings": null }, "geometry": { "type": "Point", "coordinates": [ 19.1993631, 47.4352974 ] } },
{ "type": "Feature", "properties": { "place_id": "ChIJLYXIk0vaQUcR4X-8Iis6OqE", "rating": 4.5, "nr_ratings": 4.0 }, "geometry": { "type": "Point", "coordinates": [ 19.0970127, 47.5558537 ] } },
{ "type": "Feature", "properties": { "place_id": "ChIJWZCteQLbQUcRL-Dh4GNk7E8", "rating": 5.0, "nr_ratings": 1.0 }, "geometry": { "type": "Point", "coordinates": [ 19.1018361, 47.5611694 ] } },
{ "type": "Feature", "properties": { "place_id": "ChIJA-ybPVLaQUcRwNSNugeHOmk", "rating": 3.0, "nr_ratings": 1.0 }, "geometry": { "type": "Point", "coordinates": [ 19.1066477, 47.554764 ] } },
{ "type": "Feature", "properties": { "place_id": "ChIJmQLYJfTnQUcRle0AyVQ1czo", "rating": 4.3, "nr_ratings": 126.0 }, "geometry": { "type": "Point", "coordinates": [ 19.0707062, 47.4314502 ] } },
{ "type": "Feature", "properties": { "place_id": "ChIJ04j5Y6znQUcRUVRyM0Tm8sY", "rating": null, "nr_ratings": null }, "geometry": { "type": "Point", "coordinates": [ 19.0706864, 47.4315557 ] } },
{ "type": "Feature", "properties": { "place_id": "ChIJOQrRS5nnQUcRYiNv-b7fOtU", "rating": 5.0, "nr_ratings": 2.0 }, "geometry": { "type": "Point", "coordinates": [ 19.0719639, 47.4254049 ] } },
{ "type": "Feature", "properties": { "place_id": "ChIJ4_q4u_rnQUcROluLqOBGu78", "rating": 4.0, "nr_ratings": 41.0 }, "geometry": { "type": "Point", "coordinates": [ 19.0748937, 47.424679700000013 ] } },
{ "type": "Feature", "properties": { "place_id": "ChIJJXoCIXXaQUcRtzOt5IXmrJo", "rating": null, "nr_ratings": null }, "geometry": { "type": "Point", "coordinates": [ 19.1144964, 47.5876414 ] } },
{ "type": "Feature", "properties": { "place_id": "ChIJw7U8MovbQUcRNcd5OtDwjP8", "rating": null, "nr_ratings": null }, "geometry": { "type": "Point", "coordinates": [ 19.1147278, 47.5814909 ] } },
{ "type": "Feature", "properties": { "place_id": "ChIJVdE1MH3XQUcRbZJlE9xOSNU", "rating": 4.3, "nr_ratings": 3.0 }, "geometry": { "type": "Point", "coordinates": [ 19.0483759, 47.603217699999988 ] } },
{ "type": "Feature", "properties": { "place_id": "ChIJ21u7K7HXQUcRg6O73BzG2nk", "rating": 1.6, "nr_ratings": 8.0 }, "geometry": { "type": "Point", "coordinates": [ 19.045024, 47.6030497 ] } },
{ "type": "Feature", "properties": { "place_id": "ChIJQaF5BCnDQUcRXC2_P0faB9g", "rating": 5.0, "nr_ratings": 3.0 }, "geometry": { "type": "Point", "coordinates": [ 19.2048598, 47.4382862 ] } },
{ "type": "Feature", "properties": { "place_id": "ChIJq6-NVjfbQUcRKz1P5StkqC0", "rating": 5.0, "nr_ratings": 19.0 }, "geometry": { "type": "Point", "coordinates": [ 19.1317048, 47.5440221 ] } },
{ "type": "Feature", "properties": { "place_id": "ChIJJY8gsBvbQUcReDbwy7-h2-s", "rating": 4.8, "nr_ratings": 8.0 }, "geometry": { "type": "Point", "coordinates": [ 19.1288634, 47.5396628 ] } },
{ "type": "Feature", "properties": { "place_id": "ChIJb9_8Vh3nQUcRMtf06z6QBLk", "rating": null, "nr_ratings": null }, "geometry": { "type": "Point", "coordinates": [ 19.0263486, 47.421267 ] } },
{ "type": "Feature", "properties": { "place_id": "ChIJZaGrL4fnQUcRV3kU5WEiNJU", "rating": null, "nr_ratings": null }, "geometry": { "type": "Point", "coordinates": [ 19.026486, 47.428084 ] } },
{ "type": "Feature", "properties": { "place_id": "ChIJ42_EZPHEQUcRMwbHaS5hV1Q", "rating": 4.0, "nr_ratings": 2.0 }, "geometry": { "type": "Point", "coordinates": [ 19.2034568, 47.519068 ] } },
{ "type": "Feature", "properties": { "place_id": "ChIJrw5Y6znaQUcRg1ZNDfQnbfg", "rating": null, "nr_ratings": null }, "geometry": { "type": "Point", "coordinates": [ 19.0899307, 47.5604214 ] } },
{ "type": "Feature", "properties": { "place_id": "ChIJo-NpAyPbQUcRkPCus9BIidI", "rating": 4.5, "nr_ratings": 2.0 }, "geometry": { "type": "Point", "coordinates": [ 19.0894628, 47.5606896 ] } },
{ "type": "Feature", "properties": { "place_id": "ChIJcbe0wDDaQUcRbBqjy2-Hv-E", "rating": 4.4, "nr_ratings": 144.0 }, "geometry": { "type": "Point", "coordinates": [ 19.0895457, 47.562599299999988 ] } },
{ "type": "Feature", "properties": { "place_id": "ChIJJwf3gTTaQUcRvsI_WcCAJWI", "rating": null, "nr_ratings": null }, "geometry": { "type": "Point", "coordinates": [ 19.0840969, 47.5568033 ] } },
{ "type": "Feature", "properties": { "place_id": "ChIJK25iOjLaQUcRnA88U2Nb5CY", "rating": 4.5, "nr_ratings": 10.0 }, "geometry": { "type": "Point", "coordinates": [ 19.081066, 47.559331 ] } },
{ "type": "Feature", "properties": { "place_id": "ChIJH4dttCLcQUcR2qa7HkV_7dg", "rating": 3.5, "nr_ratings": 19.0 }, "geometry": { "type": "Point", "coordinates": [ 19.0372481, 47.5007667 ] } },
{ "type": "Feature", "properties": { "place_id": "ChIJFSoCnxjcQUcRFWceOuIDw9E", "rating": 4.1, "nr_ratings": 14.0 }, "geometry": { "type": "Point", "coordinates": [ 19.033606, 47.502617 ] } },
{ "type": "Feature", "properties": { "place_id": "ChIJd8f_nhjcQUcRkqdGVp0NDvQ", "rating": 4.6, "nr_ratings": 101.0 }, "geometry": { "type": "Point", "coordinates": [ 19.033279, 47.5030538 ] } },
{ "type": "Feature", "properties": { "place_id": "ChIJf1kdNhjcQUcR2C1a5bc612s", "rating": null, "nr_ratings": null }, "geometry": { "type": "Point", "coordinates": [ 19.037835, 47.503584 ] } },
{ "type": "Feature", "properties": { "place_id": "ChIJNUEVtRncQUcRrtxAP1186pY", "rating": 3.8, "nr_ratings": 6.0 }, "geometry": { "type": "Point", "coordinates": [ 19.037975, 47.503928 ] } },
{ "type": "Feature", "properties": { "place_id": "ChIJUzklKn_dQUcRY9GsesWJS-Q", "rating": 4.7, "nr_ratings": 37.0 }, "geometry": { "type": "Point", "coordinates": [ 19.039462, 47.50239 ] } },
{ "type": "Feature", "properties": { "place_id": "ChIJ8fiC8RfcQUcRP3Z-KmhSUFg", "rating": 4.4, "nr_ratings": 71.0 }, "geometry": { "type": "Point", "coordinates": [ 19.039462, 47.50176 ] } },
{ "type": "Feature", "properties": { "place_id": "ChIJYYmEsBjcQUcRTD14o6yYxlY", "rating": 4.0, "nr_ratings": 3.0 }, "geometry": { "type": "Point", "coordinates": [ 19.032807, 47.503116600000013 ] } },
{ "type": "Feature", "properties": { "place_id": "ChIJmf0_6cXdQUcRpMqCmTHPIWY", "rating": 4.7, "nr_ratings": 27.0 }, "geometry": { "type": "Point", "coordinates": [ 19.0297583, 47.504140799999988 ] } },
{ "type": "Feature", "properties": { "place_id": "ChIJPynVCZvcQUcRiki4wGWH4g8", "rating": 4.5, "nr_ratings": 702.0 }, "geometry": { "type": "Point", "coordinates": [ 19.102529, 47.5039126 ] } },
{ "type": "Feature", "properties": { "place_id": "ChIJUSiIHYLdQUcRdAZuIIVcFpc", "rating": 3.9, "nr_ratings": 23.0 }, "geometry": { "type": "Point", "coordinates": [ 19.1031714, 47.5061441 ] } },
{ "type": "Feature", "properties": { "place_id": "ChIJS6tMN5jcQUcRdlIZO5S16fM", "rating": 4.0, "nr_ratings": 80.0 }, "geometry": { "type": "Point", "coordinates": [ 19.1093494, 47.5005627 ] } },
{ "type": "Feature", "properties": { "place_id": "ChIJ6ZnHacjdQUcRFwUR4UPoHXE", "rating": null, "nr_ratings": null }, "geometry": { "type": "Point", "coordinates": [ 19.1114747, 47.5027866 ] } },
{ "type": "Feature", "properties": { "place_id": "ChIJkXjKa5jcQUcROM1kmpKeJX8", "rating": 4.2, "nr_ratings": 75.0 }, "geometry": { "type": "Point", "coordinates": [ 19.1102661, 47.500591 ] } },
{ "type": "Feature", "properties": { "place_id": "ChIJZ2KpS87dQUcRo81geMWvjYM", "rating": 4.3, "nr_ratings": 146.0 }, "geometry": { "type": "Point", "coordinates": [ 19.0227391, 47.4658238 ] } },
{ "type": "Feature", "properties": { "place_id": "ChIJPZDMr8fdQUcRz9iXj3H7ELY", "rating": 4.4, "nr_ratings": 159.0 }, "geometry": { "type": "Point", "coordinates": [ 19.0287616, 47.4705249 ] } },
{ "type": "Feature", "properties": { "place_id": "ChIJK9GPkbjdQUcRi585F_jjq3s", "rating": null, "nr_ratings": null }, "geometry": { "type": "Point", "coordinates": [ 19.0316464, 47.4686671 ] } },
{ "type": "Feature", "properties": { "place_id": "ChIJw-_0GLvcQUcRFcQDZaWfmCc", "rating": 4.6, "nr_ratings": 2664.0 }, "geometry": { "type": "Point", "coordinates": [ 19.124486, 47.498391 ] } },
{ "type": "Feature", "properties": { "place_id": "ChIJz1O8BM7eQUcR4uTjNs51HkI", "rating": 4.4, "nr_ratings": 112.0 }, "geometry": { "type": "Point", "coordinates": [ 18.9947861, 47.5235341 ] } },
{ "type": "Feature", "properties": { "place_id": "ChIJ6b9TeoHBQUcRMTrB3h3HgnQ", "rating": 4.9, "nr_ratings": 52.0 }, "geometry": { "type": "Point", "coordinates": [ 19.2943921, 47.4728019 ] } },
{ "type": "Feature", "properties": { "place_id": "ChIJE7N_pQXDQUcRPmPPvPv2gOw", "rating": 4.2, "nr_ratings": 5.0 }, "geometry": { "type": "Point", "coordinates": [ 19.167076, 47.467033 ] } },
{ "type": "Feature", "properties": { "place_id": "ChIJzbnd9HfDQUcRgoL8H8CaaSs", "rating": 4.5, "nr_ratings": 2.0 }, "geometry": { "type": "Point", "coordinates": [ 19.2387371, 47.4756346 ] } },
{ "type": "Feature", "properties": { "place_id": "ChIJZcG6sibbQUcRUJ9FhVPQ4OA", "rating": 4.0, "nr_ratings": 280.0 }, "geometry": { "type": "Point", "coordinates": [ 19.1462967, 47.5393664 ] } },
{ "type": "Feature", "properties": { "place_id": "ChIJP8RApW3cQUcRdIe3Hc9vZQ0", "rating": 4.7, "nr_ratings": 749.0 }, "geometry": { "type": "Point", "coordinates": [ 19.060685, 47.505804 ] } },
{ "type": "Feature", "properties": { "place_id": "ChIJaX3s_WzcQUcRdXwRBCsKtZw", "rating": 4.3, "nr_ratings": 224.0 }, "geometry": { "type": "Point", "coordinates": [ 19.0588884, 47.5053536 ] } },
{ "type": "Feature", "properties": { "place_id": "ChIJxa4F4GzcQUcRkTg_tMC6FW4", "rating": 4.0, "nr_ratings": 238.0 }, "geometry": { "type": "Point", "coordinates": [ 19.0577894, 47.5055687 ] } },
{ "type": "Feature", "properties": { "place_id": "ChIJn6yZ4GzcQUcRRlYjBNzlwoI", "rating": 4.1, "nr_ratings": 643.0 }, "geometry": { "type": "Point", "coordinates": [ 19.057671, 47.5053924 ] } },
{ "type": "Feature", "properties": { "place_id": "ChIJddsAImzcQUcRKC43EuBd4Ws", "rating": 4.3, "nr_ratings": 3608.0 }, "geometry": { "type": "Point", "coordinates": [ 19.061523, 47.503694 ] } },
{ "type": "Feature", "properties": { "place_id": "ChIJB3BR9m3cQUcR8qJAe5XxbgY", "rating": 4.3, "nr_ratings": 444.0 }, "geometry": { "type": "Point", "coordinates": [ 19.0631721, 47.507086 ] } },
{ "type": "Feature", "properties": { "place_id": "ChIJl_w4oWzcQUcRh-Opft54FLQ", "rating": 4.7, "nr_ratings": 911.0 }, "geometry": { "type": "Point", "coordinates": [ 19.0557992, 47.5035136 ] } },
{ "type": "Feature", "properties": { "place_id": "ChIJ9VE0AL7eQUcRRZQNI5l1sns", "rating": null, "nr_ratings": null }, "geometry": { "type": "Point", "coordinates": [ 19.004866, 47.507131 ] } },
{ "type": "Feature", "properties": { "place_id": "ChIJ4TkIbF3fQUcRUDEpodXvLqI", "rating": 5.0, "nr_ratings": 11.0 }, "geometry": { "type": "Point", "coordinates": [ 19.0086697, 47.510391899999988 ] } },
{ "type": "Feature", "properties": { "place_id": "ChIJ4cFP81PZQUcR3pGDVMuI6Uo", "rating": 3.0, "nr_ratings": 8.0 }, "geometry": { "type": "Point", "coordinates": [ 19.0327839, 47.5264625 ] } },
{ "type": "Feature", "properties": { "place_id": "ChIJQxCnDZvDQUcRkn097LJ3Nb0", "rating": null, "nr_ratings": null }, "geometry": { "type": "Point", "coordinates": [ 19.1314261, 47.4851884 ] } },
{ "type": "Feature", "properties": { "place_id": "ChIJ61scUrXcQUcRC7avueWH7ts", "rating": 4.5, "nr_ratings": 11.0 }, "geometry": { "type": "Point", "coordinates": [ 19.1301784, 47.48579 ] } },
{ "type": "Feature", "properties": { "place_id": "ChIJrRUUMqLcQUcR5X0GPOw-OEQ", "rating": 4.4, "nr_ratings": 56.0 }, "geometry": { "type": "Point", "coordinates": [ 19.1165988, 47.502563 ] } },
{ "type": "Feature", "properties": { "place_id": "ChIJAcT4e2zCQUcRS1FgtGk-kGY", "rating": 4.3, "nr_ratings": 50.0 }, "geometry": { "type": "Point", "coordinates": [ 19.1779364, 47.431123 ] } },
{ "type": "Feature", "properties": { "place_id": "ChIJR--bsxPoQUcRW1C0gyJXYtI", "rating": 4.6, "nr_ratings": 157.0 }, "geometry": { "type": "Point", "coordinates": [ 19.0991405, 47.4128492 ] } },
{ "type": "Feature", "properties": { "place_id": "ChIJpWF23CHDQUcRd4JDWsvwNtM", "rating": 4.9, "nr_ratings": 85.0 }, "geometry": { "type": "Point", "coordinates": [ 19.1308555, 47.4518213 ] } },
{ "type": "Feature", "properties": { "place_id": "ChIJVeqmDAHDQUcRozXuuuTBEhU", "rating": 4.6, "nr_ratings": 45.0 }, "geometry": { "type": "Point", "coordinates": [ 19.1259878, 47.457591099999988 ] } },
{ "type": "Feature", "properties": { "place_id": "ChIJd8Xix5fEQUcRu3cOXk3RU4U", "rating": 4.8, "nr_ratings": 54.0 }, "geometry": { "type": "Point", "coordinates": [ 19.1791902, 47.5094395 ] } },
{ "type": "Feature", "properties": { "place_id": "ChIJL69Xo7fFQUcRLUY9ICp_7DM", "rating": null, "nr_ratings": null }, "geometry": { "type": "Point", "coordinates": [ 19.1816248, 47.5074875 ] } },
{ "type": "Feature", "properties": { "place_id": "ChIJ_epiIqPdQUcRfeosXLF3yW8", "rating": 5.0, "nr_ratings": 1.0 }, "geometry": { "type": "Point", "coordinates": [ 19.0426569, 47.4628469 ] } },
{ "type": "Feature", "properties": { "place_id": "ChIJDfx_96zCQUcRDGrkld5KSHM", "rating": 3.8, "nr_ratings": 99.0 }, "geometry": { "type": "Point", "coordinates": [ 19.1004342, 47.4364807 ] } },
{ "type": "Feature", "properties": { "place_id": "ChIJtfa19X7DQUcRI3L9D2e7eHw", "rating": null, "nr_ratings": null }, "geometry": { "type": "Point", "coordinates": [ 19.1000001, 47.436286900000013 ] } },
{ "type": "Feature", "properties": { "place_id": "ChIJ27sxtr_DQUcRYAwkpNqGuuE", "rating": null, "nr_ratings": null }, "geometry": { "type": "Point", "coordinates": [ 19.100177, 47.435799 ] } },
{ "type": "Feature", "properties": { "place_id": "ChIJF9XEYujCQUcRjltcE1Fx8YE", "rating": 4.4, "nr_ratings": 61.0 }, "geometry": { "type": "Point", "coordinates": [ 19.1408925, 47.4523969 ] } },
{ "type": "Feature", "properties": { "place_id": "ChIJn8oplunCQUcRBT3iLMuV9qw", "rating": null, "nr_ratings": null }, "geometry": { "type": "Point", "coordinates": [ 19.1382058, 47.4496758 ] } },
{ "type": "Feature", "properties": { "place_id": "ChIJ4b3ErwTDQUcRpEeBC1Ui3oI", "rating": 3.4, "nr_ratings": 51.0 }, "geometry": { "type": "Point", "coordinates": [ 19.1403558, 47.4541374 ] } },
{ "type": "Feature", "properties": { "place_id": "ChIJFUlFBOzCQUcR9bwGRBr2qEo", "rating": 5.0, "nr_ratings": 3.0 }, "geometry": { "type": "Point", "coordinates": [ 19.142026, 47.4472961 ] } },
{ "type": "Feature", "properties": { "place_id": "ChIJEQGU6hDnQUcR0U_81fYj9Uk", "rating": 4.0, "nr_ratings": 1.0 }, "geometry": { "type": "Point", "coordinates": [ 19.0700158, 47.4181916 ] } },
{ "type": "Feature", "properties": { "place_id": "ChIJLxI5LObnQUcRqaqH65SYgXU", "rating": 4.3, "nr_ratings": 24.0 }, "geometry": { "type": "Point", "coordinates": [ 19.0698805, 47.4170346 ] } },
{ "type": "Feature", "properties": { "place_id": "ChIJS54kOunnQUcR7xDsbR1k1n8", "rating": 4.5, "nr_ratings": 270.0 }, "geometry": { "type": "Point", "coordinates": [ 19.0653796, 47.4197088 ] } },
{ "type": "Feature", "properties": { "place_id": "ChIJm5IlHOnnQUcRSaLBD2bia6U", "rating": 4.3, "nr_ratings": 42.0 }, "geometry": { "type": "Point", "coordinates": [ 19.0657646, 47.4187437 ] } },
{ "type": "Feature", "properties": { "place_id": "ChIJtzeUX13cQUcRuPTQ9NRQx_s", "rating": 2.9, "nr_ratings": 166.0 }, "geometry": { "type": "Point", "coordinates": [ 19.066204, 47.4965785 ] } },
{ "type": "Feature", "properties": { "place_id": "ChIJK2mQQ2ncQUcRtyf1_k4y3r0", "rating": 4.2, "nr_ratings": 70.0 }, "geometry": { "type": "Point", "coordinates": [ 19.0616374, 47.5013941 ] } },
{ "type": "Feature", "properties": { "place_id": "ChIJ5UPYtWncQUcR0xLni0_pEik", "rating": 3.4, "nr_ratings": 28.0 }, "geometry": { "type": "Point", "coordinates": [ 19.0612978, 47.498400200000013 ] } },
{ "type": "Feature", "properties": { "place_id": "ChIJ8-yxsGncQUcRghDTZ-ue3H4", "rating": 4.5, "nr_ratings": 304.0 }, "geometry": { "type": "Point", "coordinates": [ 19.0616065, 47.4988615 ] } },
{ "type": "Feature", "properties": { "place_id": "ChIJJ0WFtGncQUcRI3vuFybLNmA", "rating": 4.5, "nr_ratings": 744.0 }, "geometry": { "type": "Point", "coordinates": [ 19.0620831, 47.498839 ] } },
{ "type": "Feature", "properties": { "place_id": "ChIJQagPIWjcQUcRrhN8AVANf8Y", "rating": 4.6, "nr_ratings": 237.0 }, "geometry": { "type": "Point", "coordinates": [ 19.0628638, 47.4973031 ] } },
{ "type": "Feature", "properties": { "place_id": "ChIJMYQLPGjcQUcRPYf-A24PDu8", "rating": 4.8, "nr_ratings": 4.0 }, "geometry": { "type": "Point", "coordinates": [ 19.0631513, 47.4979206 ] } },
{ "type": "Feature", "properties": { "place_id": "ChIJcex9sWncQUcR2KWXpm438EM", "rating": 4.4, "nr_ratings": 288.0 }, "geometry": { "type": "Point", "coordinates": [ 19.0619723, 47.4989755 ] } },
{ "type": "Feature", "properties": { "place_id": "ChIJWRCQImjcQUcR_T9vEFnobTA", "rating": 4.5, "nr_ratings": 251.0 }, "geometry": { "type": "Point", "coordinates": [ 19.0631781, 47.4972948 ] } },
{ "type": "Feature", "properties": { "place_id": "ChIJH8rFx03bQUcRVol-cWQ-VZU", "rating": null, "nr_ratings": null }, "geometry": { "type": "Point", "coordinates": [ 19.1459629, 47.5151772 ] } },
{ "type": "Feature", "properties": { "place_id": "ChIJZVQrk-zdQUcRR5dfk9tgqIg", "rating": null, "nr_ratings": null }, "geometry": { "type": "Point", "coordinates": [ 19.1121441, 47.4647036 ] } },
{ "type": "Feature", "properties": { "place_id": "ChIJU6cPtRPdQUcRzSn4Rdk1iKo", "rating": null, "nr_ratings": null }, "geometry": { "type": "Point", "coordinates": [ 19.1171216, 47.4682921 ] } },
{ "type": "Feature", "properties": { "place_id": "ChIJX55RB9nZQUcR4gLUsDkgTes", "rating": 4.3, "nr_ratings": 78.0 }, "geometry": { "type": "Point", "coordinates": [ 19.0499127, 47.598124299999988 ] } },
{ "type": "Feature", "properties": { "place_id": "ChIJG2ohRWXZQUcRaNqjXlBBR8s", "rating": 5.0, "nr_ratings": 1.0 }, "geometry": { "type": "Point", "coordinates": [ 19.0493397, 47.5690588 ] } },
{ "type": "Feature", "properties": { "place_id": "ChIJd05hW1nCQUcRMj6GFDao2qo", "rating": 4.7, "nr_ratings": 178.0 }, "geometry": { "type": "Point", "coordinates": [ 19.1682326, 47.4443349 ] } },
{ "type": "Feature", "properties": { "place_id": "ChIJJdsu-uLDQUcR0kv9zcD2BEg", "rating": 4.1, "nr_ratings": 8.0 }, "geometry": { "type": "Point", "coordinates": [ 19.1697998, 47.4440696 ] } },
{ "type": "Feature", "properties": { "place_id": "ChIJ19l1iR7dQUcRakExcrg5Ky4", "rating": null, "nr_ratings": null }, "geometry": { "type": "Point", "coordinates": [ 19.0847081, 47.4701418 ] } },
{ "type": "Feature", "properties": { "place_id": "ChIJD0KNaWnbQUcRtUOITzOd7vM", "rating": 4.4, "nr_ratings": 153.0 }, "geometry": { "type": "Point", "coordinates": [ 19.1210829, 47.5218954 ] } },
{ "type": "Feature", "properties": { "place_id": "ChIJU6iqnpTZQUcRhWtEew6SK7A", "rating": 5.0, "nr_ratings": 1.0 }, "geometry": { "type": "Point", "coordinates": [ 19.0185507, 47.5571212 ] } },
{ "type": "Feature", "properties": { "place_id": "ChIJuYKEEgzZQUcR9mFW96dyn0o", "rating": 3.5, "nr_ratings": 17.0 }, "geometry": { "type": "Point", "coordinates": [ 19.0274669, 47.558507 ] } },
{ "type": "Feature", "properties": { "place_id": "ChIJwZaWx8HbQUcRUEIQWiRjjYM", "rating": 2.6, "nr_ratings": 5.0 }, "geometry": { "type": "Point", "coordinates": [ 19.0790385, 47.518892 ] } },
{ "type": "Feature", "properties": { "place_id": "ChIJe5e64bPbQUcRdfJMpw-aW8E", "rating": 5.0, "nr_ratings": 1.0 }, "geometry": { "type": "Point", "coordinates": [ 19.0794371, 47.520421 ] } },
{ "type": "Feature", "properties": { "place_id": "ChIJzdE1xVjbQUcRPipt54JIH28", "rating": null, "nr_ratings": null }, "geometry": { "type": "Point", "coordinates": [ 19.1257759, 47.50849 ] } },
{ "type": "Feature", "properties": { "place_id": "ChIJZaSGdE3cQUcRgLDEP9O27wc", "rating": 4.3, "nr_ratings": 24.0 }, "geometry": { "type": "Point", "coordinates": [ 19.0518558, 47.4810671 ] } },
{ "type": "Feature", "properties": { "place_id": "ChIJx4T68U3cQUcREfg7JbxQOgQ", "rating": 4.6, "nr_ratings": 343.0 }, "geometry": { "type": "Point", "coordinates": [ 19.0537651, 47.4823736 ] } },
{ "type": "Feature", "properties": { "place_id": "ChIJs4KbvFLcQUcR4EvAR-w-T_U", "rating": 4.5, "nr_ratings": 892.0 }, "geometry": { "type": "Point", "coordinates": [ 19.0536662, 47.479175 ] } },
{ "type": "Feature", "properties": { "place_id": "ChIJO6Jd-03cQUcRQmAAJtJNCeU", "rating": 5.0, "nr_ratings": 2.0 }, "geometry": { "type": "Point", "coordinates": [ 19.0542385, 47.4829775 ] } },
{ "type": "Feature", "properties": { "place_id": "ChIJUQkGdlLdQUcRvsu9fpCM4wE", "rating": 5.0, "nr_ratings": 1.0 }, "geometry": { "type": "Point", "coordinates": [ 19.0511925, 47.4834597 ] } },
{ "type": "Feature", "properties": { "place_id": "ChIJoX9TRtTdQUcRtYjo7G6ZIDU", "rating": 4.5, "nr_ratings": 752.0 }, "geometry": { "type": "Point", "coordinates": [ 19.0525436, 47.481536899999988 ] } },
{ "type": "Feature", "properties": { "place_id": "ChIJ5SsdoE3cQUcReL500Cz-TjA", "rating": 4.4, "nr_ratings": 61.0 }, "geometry": { "type": "Point", "coordinates": [ 19.0519916, 47.481159899999987 ] } },
{ "type": "Feature", "properties": { "place_id": "ChIJM8ZnPK3dQUcRAdiUcQYbec0", "rating": 4.7, "nr_ratings": 1463.0 }, "geometry": { "type": "Point", "coordinates": [ 19.053121, 47.4808461 ] } },
{ "type": "Feature", "properties": { "place_id": "ChIJVSgcCVHcQUcRlCY1lLodBy8", "rating": 3.9, "nr_ratings": 281.0 }, "geometry": { "type": "Point", "coordinates": [ 19.059855, 47.4840934 ] } },
{ "type": "Feature", "properties": { "place_id": "ChIJaeoHDE3cQUcRpMA7W-0UjvU", "rating": 4.4, "nr_ratings": 193.0 }, "geometry": { "type": "Point", "coordinates": [ 19.0515327, 47.4808692 ] } },
{ "type": "Feature", "properties": { "place_id": "ChIJc8BULLnbQUcR6Plw_tmp38k", "rating": 5.0, "nr_ratings": 5.0 }, "geometry": { "type": "Point", "coordinates": [ 19.0564279, 47.4882772 ] } },
{ "type": "Feature", "properties": { "place_id": "ChIJE_PKekzcQUcRA2qElkrd8oI", "rating": null, "nr_ratings": null }, "geometry": { "type": "Point", "coordinates": [ 19.0481455, 47.4823801 ] } },
{ "type": "Feature", "properties": { "place_id": "ChIJE7CBqJndQUcRJ8JzXwY1joQ", "rating": 5.0, "nr_ratings": 1.0 }, "geometry": { "type": "Point", "coordinates": [ 19.0610804, 47.4845332 ] } },
{ "type": "Feature", "properties": { "place_id": "ChIJQR5AzjLdQUcRx_ZlMHDCV9U", "rating": 4.8, "nr_ratings": 106.0 }, "geometry": { "type": "Point", "coordinates": [ 19.0612467, 47.4845912 ] } },
{ "type": "Feature", "properties": { "place_id": "ChIJa473W03cQUcRuDN_oYkWuAI", "rating": 4.4, "nr_ratings": 475.0 }, "geometry": { "type": "Point", "coordinates": [ 19.0521527, 47.4795447 ] } },
{ "type": "Feature", "properties": { "place_id": "ChIJ36z4QkPZQUcRnntDIf6ynio", "rating": null, "nr_ratings": null }, "geometry": { "type": "Point", "coordinates": [ 19.0328427, 47.5387291 ] } },
{ "type": "Feature", "properties": { "place_id": "ChIJCQiwGYHdQUcRRfkkt4DLo5o", "rating": 4.6, "nr_ratings": 226.0 }, "geometry": { "type": "Point", "coordinates": [ 19.0370943, 47.4431361 ] } },
{ "type": "Feature", "properties": { "place_id": "ChIJf3siwIDdQUcRytjqqP-uHwM", "rating": null, "nr_ratings": null }, "geometry": { "type": "Point", "coordinates": [ 19.035932, 47.442079 ] } },
{ "type": "Feature", "properties": { "place_id": "ChIJR4ubPCXdQUcRRCogcFirTNA", "rating": 4.4, "nr_ratings": 121.0 }, "geometry": { "type": "Point", "coordinates": [ 19.0285143, 47.448113799999987 ] } },
{ "type": "Feature", "properties": { "place_id": "ChIJlf_Y9pHdQUcRn_y89UYPlrA", "rating": null, "nr_ratings": null }, "geometry": { "type": "Point", "coordinates": [ 19.0272673, 47.4532544 ] } },
{ "type": "Feature", "properties": { "place_id": "ChIJPevjgpLdQUcRiduDopoj2_g", "rating": null, "nr_ratings": null }, "geometry": { "type": "Point", "coordinates": [ 19.0231225, 47.4532592 ] } },
{ "type": "Feature", "properties": { "place_id": "ChIJR4-yAsbEQUcR9lDvZ7nj7s4", "rating": 4.4, "nr_ratings": 44.0 }, "geometry": { "type": "Point", "coordinates": [ 19.1723137, 47.5233725 ] } },
{ "type": "Feature", "properties": { "place_id": "ChIJ57eOM7nFQUcRUmZE1kWolnk", "rating": null, "nr_ratings": null }, "geometry": { "type": "Point", "coordinates": [ 19.1720528, 47.5232551 ] } },
{ "type": "Feature", "properties": { "place_id": "ChIJlYe-cnDbQUcRYNfQAeiK53k", "rating": 3.0, "nr_ratings": 1.0 }, "geometry": { "type": "Point", "coordinates": [ 19.1086974, 47.5202256 ] } },
{ "type": "Feature", "properties": { "place_id": "ChIJ91WyfWXbQUcRkxQB2BcgNNo", "rating": null, "nr_ratings": null }, "geometry": { "type": "Point", "coordinates": [ 19.1127559, 47.5188766 ] } },
{ "type": "Feature", "properties": { "place_id": "ChIJrSjTK1TdQUcR5mnCFJMLUXo", "rating": 3.6, "nr_ratings": 34.0 }, "geometry": { "type": "Point", "coordinates": [ 19.0881057, 47.431898800000013 ] } },
{ "type": "Feature", "properties": { "place_id": "ChIJ3eB9qYLeQUcRYFwNzgrFLEU", "rating": 4.4, "nr_ratings": 244.0 }, "geometry": { "type": "Point", "coordinates": [ 19.0181632, 47.4942867 ] } },
{ "type": "Feature", "properties": { "place_id": "ChIJ1YLaq4LeQUcRQ1AvgACzGTA", "rating": 4.5, "nr_ratings": 152.0 }, "geometry": { "type": "Point", "coordinates": [ 19.018168, 47.4943219 ] } },
{ "type": "Feature", "properties": { "place_id": "ChIJSSBrVZ3eQUcRhtjMm3_Vo-g", "rating": null, "nr_ratings": null }, "geometry": { "type": "Point", "coordinates": [ 19.0185211, 47.4946488 ] } },
{ "type": "Feature", "properties": { "place_id": "ChIJHWFQ-SfcQUcRuXhTmZzhhGo", "rating": 4.8, "nr_ratings": 61.0 }, "geometry": { "type": "Point", "coordinates": [ 19.0191942, 47.4947971 ] } },
{ "type": "Feature", "properties": { "place_id": "ChIJ-UJ5fijcQUcR_ZiZXdxxJfo", "rating": 4.3, "nr_ratings": 172.0 }, "geometry": { "type": "Point", "coordinates": [ 19.0216631, 47.4937254 ] } },
{ "type": "Feature", "properties": { "place_id": "ChIJA1wyxCfcQUcRLcYJMJ6PY8M", "rating": 4.9, "nr_ratings": 130.0 }, "geometry": { "type": "Point", "coordinates": [ 19.0214212, 47.4949494 ] } },
{ "type": "Feature", "properties": { "place_id": "ChIJ5cEi0oPeQUcRPc-ZCYPtMvM", "rating": 3.0, "nr_ratings": 1.0 }, "geometry": { "type": "Point", "coordinates": [ 19.0120258, 47.491214799999987 ] } },
{ "type": "Feature", "properties": { "place_id": "ChIJhx300QXfQUcRJj4VD-Um4Go", "rating": 4.9, "nr_ratings": 31.0 }, "geometry": { "type": "Point", "coordinates": [ 19.0199941, 47.4972748 ] } },
{ "type": "Feature", "properties": { "place_id": "ChIJzeOMwLTGQUcR5jWfiAS06DY", "rating": 4.4, "nr_ratings": 15.0 }, "geometry": { "type": "Point", "coordinates": [ 19.2720529, 47.4822633 ] } },
{ "type": "Feature", "properties": { "place_id": "ChIJHSY6jjTBQUcRHozvt9r5Q7g", "rating": null, "nr_ratings": null }, "geometry": { "type": "Point", "coordinates": [ 19.2804219, 47.4777707 ] } },
{ "type": "Feature", "properties": { "place_id": "ChIJb7SeA7XGQUcR4BllhjXbVZg", "rating": 4.3, "nr_ratings": 50.0 }, "geometry": { "type": "Point", "coordinates": [ 19.274508, 47.4828614 ] } },
{ "type": "Feature", "properties": { "place_id": "ChIJdfIrEL_cQUcRyo2P2Mkr_JI", "rating": 3.6, "nr_ratings": 99.0 }, "geometry": { "type": "Point", "coordinates": [ 19.1096775, 47.4907815 ] } },
{ "type": "Feature", "properties": { "place_id": "ChIJQd2NdVvbQUcRJEQfaZPWt4k", "rating": 3.0, "nr_ratings": 2.0 }, "geometry": { "type": "Point", "coordinates": [ 19.1252377, 47.5674062 ] } },
{ "type": "Feature", "properties": { "place_id": "ChIJJ2PKHtDeQUcRANBtrkEHdOs", "rating": 4.0, "nr_ratings": 1.0 }, "geometry": { "type": "Point", "coordinates": [ 18.9900905, 47.5210882 ] } },
{ "type": "Feature", "properties": { "place_id": "ChIJhylvgQjnQUcR9wzUid1g3Fw", "rating": 4.5, "nr_ratings": 158.0 }, "geometry": { "type": "Point", "coordinates": [ 19.0177624, 47.4135802 ] } },
{ "type": "Feature", "properties": { "place_id": "ChIJV6qTY7veQUcRJ8Vbyvc_fuM", "rating": null, "nr_ratings": null }, "geometry": { "type": "Point", "coordinates": [ 19.0127052, 47.5110784 ] } },
{ "type": "Feature", "properties": { "place_id": "ChIJqdkWF-bbQUcRnwm4rYAWKl4", "rating": 4.3, "nr_ratings": 34.0 }, "geometry": { "type": "Point", "coordinates": [ 19.0596168, 47.5337215 ] } },
{ "type": "Feature", "properties": { "place_id": "ChIJ8U9Gpe7bQUcRfANHWrPWKMw", "rating": 4.1, "nr_ratings": 294.0 }, "geometry": { "type": "Point", "coordinates": [ 19.0656277, 47.5315351 ] } },
{ "type": "Feature", "properties": { "place_id": "ChIJkzepPebbQUcRw7A5l9sjRtU", "rating": null, "nr_ratings": null }, "geometry": { "type": "Point", "coordinates": [ 19.0598259, 47.5339855 ] } },
{ "type": "Feature", "properties": { "place_id": "ChIJ_Uf3D-bbQUcRy8nbawUbFAU", "rating": 5.0, "nr_ratings": 3.0 }, "geometry": { "type": "Point", "coordinates": [ 19.0597152, 47.5338478 ] } },
{ "type": "Feature", "properties": { "place_id": "ChIJze4HXIvCQUcRCmVSDcWsK9I", "rating": 3.3, "nr_ratings": 3.0 }, "geometry": { "type": "Point", "coordinates": [ 19.1514676, 47.440334099999987 ] } },
{ "type": "Feature", "properties": { "place_id": "ChIJEQZFtmHCQUcRQSvh4Ci3fEI", "rating": null, "nr_ratings": null }, "geometry": { "type": "Point", "coordinates": [ 19.1585653, 47.436952 ] } },
{ "type": "Feature", "properties": { "place_id": "ChIJbzaQ0kLZQUcRW8_bhh5X9Gg", "rating": 4.4, "nr_ratings": 48.0 }, "geometry": { "type": "Point", "coordinates": [ 19.0353577, 47.5406017 ] } },
{ "type": "Feature", "properties": { "place_id": "ChIJoa72elzZQUcRvHNXAtZV-tg", "rating": 4.4, "nr_ratings": 58.0 }, "geometry": { "type": "Point", "coordinates": [ 19.0380814, 47.5375337 ] } },
{ "type": "Feature", "properties": { "place_id": "ChIJpQm8xmfZQUcRqaiBc1AfnOM", "rating": 3.9, "nr_ratings": 66.0 }, "geometry": { "type": "Point", "coordinates": [ 19.0391666, 47.543541 ] } },
{ "type": "Feature", "properties": { "place_id": "ChIJN56AHgjdQUcR7KBTGz_Lv8U", "rating": 4.0, "nr_ratings": 1.0 }, "geometry": { "type": "Point", "coordinates": [ 19.0773293, 47.4672 ] } },
{ "type": "Feature", "properties": { "place_id": "ChIJ7bXnVv3mQUcRtY5k1thJZEw", "rating": null, "nr_ratings": null }, "geometry": { "type": "Point", "coordinates": [ 19.0021128, 47.4056728 ] } },
{ "type": "Feature", "properties": { "place_id": "ChIJIZFD1LXdQUcR13aCQxN-AtI", "rating": 4.5, "nr_ratings": 489.0 }, "geometry": { "type": "Point", "coordinates": [ 19.0388091, 47.476060399999987 ] } },
{ "type": "Feature", "properties": { "place_id": "ChIJ5eBLTLTdQUcRi87IgRNTInQ", "rating": 4.3, "nr_ratings": 1918.0 }, "geometry": { "type": "Point", "coordinates": [ 19.040157, 47.477043599999988 ] } },
{ "type": "Feature", "properties": { "place_id": "ChIJaxpe0j_DQUcRFLtAxCO2Kso", "rating": 4.6, "nr_ratings": 9.0 }, "geometry": { "type": "Point", "coordinates": [ 19.1956698, 47.453329 ] } },
{ "type": "Feature", "properties": { "place_id": "ChIJu2yzs0zCQUcRyfDW_-i3sTU", "rating": null, "nr_ratings": null }, "geometry": { "type": "Point", "coordinates": [ 19.1899195, 47.4545912 ] } },
{ "type": "Feature", "properties": { "place_id": "ChIJNZeGFpTbQUcRKkuqTzs7yno", "rating": null, "nr_ratings": null }, "geometry": { "type": "Point", "coordinates": [ 19.079565, 47.530935 ] } },
{ "type": "Feature", "properties": { "place_id": "ChIJr2rj1n7bQUcRhNKyIb_WpC4", "rating": null, "nr_ratings": null }, "geometry": { "type": "Point", "coordinates": [ 19.0786043, 47.5311747 ] } },
{ "type": "Feature", "properties": { "place_id": "ChIJVTf8w-zbQUcRPZHTs7JnExE", "rating": 4.4, "nr_ratings": 8.0 }, "geometry": { "type": "Point", "coordinates": [ 19.0900279, 47.5342718 ] } },
{ "type": "Feature", "properties": { "place_id": "ChIJH4OKcZvbQUcROyAOYZgnJYU", "rating": 4.7, "nr_ratings": 60.0 }, "geometry": { "type": "Point", "coordinates": [ 19.0889875, 47.5250661 ] } },
{ "type": "Feature", "properties": { "place_id": "ChIJ09nX9L7YQUcRCEiIkxLO7D4", "rating": 4.4, "nr_ratings": 29.0 }, "geometry": { "type": "Point", "coordinates": [ 18.963908, 47.552082 ] } },
{ "type": "Feature", "properties": { "place_id": "ChIJt3mZ7EzDQUcRr5cDblqkw5E", "rating": 4.5, "nr_ratings": 24.0 }, "geometry": { "type": "Point", "coordinates": [ 19.1369592, 47.4907822 ] } },
{ "type": "Feature", "properties": { "place_id": "ChIJUfRNT6nGQUcRRgTkxQNCAdo", "rating": 4.5, "nr_ratings": 12.0 }, "geometry": { "type": "Point", "coordinates": [ 19.2592444, 47.4894857 ] } },
{ "type": "Feature", "properties": { "place_id": "ChIJLzAq6qvHQUcRlC0AyzyLHXo", "rating": null, "nr_ratings": null }, "geometry": { "type": "Point", "coordinates": [ 19.2606683, 47.4893091 ] } },
{ "type": "Feature", "properties": { "place_id": "ChIJidMOybHdQUcR-9AoyOhILw0", "rating": 4.2, "nr_ratings": 1056.0 }, "geometry": { "type": "Point", "coordinates": [ 19.0461513, 47.4726477 ] } },
{ "type": "Feature", "properties": { "place_id": "ChIJu2fffK7dQUcRgbC2JH1_I24", "rating": 3.8, "nr_ratings": 414.0 }, "geometry": { "type": "Point", "coordinates": [ 19.0517008, 47.4731179 ] } },
{ "type": "Feature", "properties": { "place_id": "ChIJ021QK7LdQUcR8SG2-2rYr6g", "rating": null, "nr_ratings": null }, "geometry": { "type": "Point", "coordinates": [ 19.0457991, 47.4748905 ] } },
{ "type": "Feature", "properties": { "place_id": "ChIJSbo3KrDdQUcRbPHnqd0UJWU", "rating": 4.8, "nr_ratings": 185.0 }, "geometry": { "type": "Point", "coordinates": [ 19.0469956, 47.4716139 ] } },
{ "type": "Feature", "properties": { "place_id": "ChIJ16cBurHdQUcReTCA-qtZelI", "rating": 5.0, "nr_ratings": 4.0 }, "geometry": { "type": "Point", "coordinates": [ 19.0456316, 47.4727412 ] } },
{ "type": "Feature", "properties": { "place_id": "ChIJv3I4rLHdQUcR80DyL6k2ihk", "rating": null, "nr_ratings": null }, "geometry": { "type": "Point", "coordinates": [ 19.0447429, 47.4724789 ] } },
{ "type": "Feature", "properties": { "place_id": "ChIJUQkAuZjdQUcRKU4rgQA0FzE", "rating": null, "nr_ratings": null }, "geometry": { "type": "Point", "coordinates": [ 19.0469791, 47.4746341 ] } },
{ "type": "Feature", "properties": { "place_id": "ChIJyyXgI7LdQUcRo32lTcSpONw", "rating": 4.8, "nr_ratings": 4.0 }, "geometry": { "type": "Point", "coordinates": [ 19.0471089, 47.4747004 ] } },
{ "type": "Feature", "properties": { "place_id": "ChIJ9zYPTUPaQUcRi7PtEzjN9tA", "rating": 2.9, "nr_ratings": 72.0 }, "geometry": { "type": "Point", "coordinates": [ 19.1120093, 47.565806300000013 ] } },
{ "type": "Feature", "properties": { "place_id": "ChIJ30wKgj_aQUcRWNFDTLPKthM", "rating": null, "nr_ratings": null }, "geometry": { "type": "Point", "coordinates": [ 19.099825, 47.56964 ] } },
{ "type": "Feature", "properties": { "place_id": "ChIJnx6nFfHbQUcRBG7uoE_1cKQ", "rating": 4.6, "nr_ratings": 65.0 }, "geometry": { "type": "Point", "coordinates": [ 19.0595793, 47.5246136 ] } },
{ "type": "Feature", "properties": { "place_id": "ChIJb0LMr_XbQUcR6Rzxde5ejIU", "rating": 4.2, "nr_ratings": 858.0 }, "geometry": { "type": "Point", "coordinates": [ 19.0609704, 47.5198348 ] } },
{ "type": "Feature", "properties": { "place_id": "ChIJidCVbPTbQUcR_sX5D3pf2Cs", "rating": null, "nr_ratings": null }, "geometry": { "type": "Point", "coordinates": [ 19.06174, 47.521836 ] } },
{ "type": "Feature", "properties": { "place_id": "ChIJj8DFaofbQUcRzelm--YMi-Q", "rating": 4.6, "nr_ratings": 104.0 }, "geometry": { "type": "Point", "coordinates": [ 19.0600667, 47.5248315 ] } },
{ "type": "Feature", "properties": { "place_id": "ChIJ_-g4TcjbQUcRp-KBfDUhsc4", "rating": 3.9, "nr_ratings": 35.0 }, "geometry": { "type": "Point", "coordinates": [ 19.082106, 47.547165 ] } },
{ "type": "Feature", "properties": { "place_id": "ChIJxRen2B7DQUcRsAhgII1am1c", "rating": null, "nr_ratings": null }, "geometry": { "type": "Point", "coordinates": [ 19.1632369, 47.4271594 ] } },
{ "type": "Feature", "properties": { "place_id": "ChIJzztfXWzfQUcRq04TlnYEKqw", "rating": 3.8, "nr_ratings": 5.0 }, "geometry": { "type": "Point", "coordinates": [ 19.0093037, 47.4860866 ] } },
{ "type": "Feature", "properties": { "place_id": "ChIJ62PDNYbeQUcR2_66smYwNhE", "rating": 4.7, "nr_ratings": 117.0 }, "geometry": { "type": "Point", "coordinates": [ 19.0024709, 47.4894837 ] } },
{ "type": "Feature", "properties": { "place_id": "ChIJU3tCTD7bQUcRwcWDDFFrqAk", "rating": 4.3, "nr_ratings": 8.0 }, "geometry": { "type": "Point", "coordinates": [ 19.1083303, 47.553669 ] } },
{ "type": "Feature", "properties": { "place_id": "ChIJM_lZnjTZQUcRaO_mX98A6HA", "rating": 2.3, "nr_ratings": 3.0 }, "geometry": { "type": "Point", "coordinates": [ 19.0054342, 47.5287868 ] } },
{ "type": "Feature", "properties": { "place_id": "ChIJxco-DN3ZQUcRSY6-qgJjqhs", "rating": null, "nr_ratings": null }, "geometry": { "type": "Point", "coordinates": [ 19.0134412, 47.5318646 ] } },
{ "type": "Feature", "properties": { "place_id": "ChIJc4FCMInZQUcRoU40pr16ri0", "rating": 4.7, "nr_ratings": 469.0 }, "geometry": { "type": "Point", "coordinates": [ 19.0651546, 47.5712562 ] } },
{ "type": "Feature", "properties": { "place_id": "ChIJV5oRKInZQUcRgoPo7EKA974", "rating": 4.3, "nr_ratings": 466.0 }, "geometry": { "type": "Point", "coordinates": [ 19.0647688, 47.570632 ] } },
{ "type": "Feature", "properties": { "place_id": "ChIJJ_eaD4zZQUcRt3LSaJwn_2A", "rating": 2.0, "nr_ratings": 2.0 }, "geometry": { "type": "Point", "coordinates": [ 19.0649615, 47.5737833 ] } },
{ "type": "Feature", "properties": { "place_id": "ChIJvfn0NFrZQUcR7V8jC9D-wbE", "rating": 3.0, "nr_ratings": 2.0 }, "geometry": { "type": "Point", "coordinates": [ 19.0653397, 47.5736976 ] } },
{ "type": "Feature", "properties": { "place_id": "ChIJ4XpCD4zZQUcR6ELvgdoczKo", "rating": 3.0, "nr_ratings": 2.0 }, "geometry": { "type": "Point", "coordinates": [ 19.0654569, 47.5736972 ] } },
{ "type": "Feature", "properties": { "place_id": "ChIJ6Ws3JprZQUcRARmVVUqd4LA", "rating": 4.5, "nr_ratings": 2.0 }, "geometry": { "type": "Point", "coordinates": [ 19.0657716, 47.5749862 ] } },
{ "type": "Feature", "properties": { "place_id": "ChIJAU8ov1XZQUcRc4kT19zacVI", "rating": 4.8, "nr_ratings": 8.0 }, "geometry": { "type": "Point", "coordinates": [ 19.0620963, 47.5679331 ] } },
{ "type": "Feature", "properties": { "place_id": "ChIJqck87wDqQUcRnYMJgFOf1xw", "rating": 4.3, "nr_ratings": 4.0 }, "geometry": { "type": "Point", "coordinates": [ 19.202196, 47.4102249 ] } },
{ "type": "Feature", "properties": { "place_id": "ChIJLWUOFRnBQUcRSKhO0CQ0_qA", "rating": 3.5, "nr_ratings": 2.0 }, "geometry": { "type": "Point", "coordinates": [ 19.2014493, 47.4133236 ] } },
{ "type": "Feature", "properties": { "place_id": "ChIJi0yVu6_bQUcRaNyMAJymuk8", "rating": 4.4, "nr_ratings": 721.0 }, "geometry": { "type": "Point", "coordinates": [ 19.0708994, 47.5620279 ] } },
{ "type": "Feature", "properties": { "place_id": "ChIJUfpjTFrBQUcRFtNzcFf0Co0", "rating": 4.5, "nr_ratings": 2.0 }, "geometry": { "type": "Point", "coordinates": [ 19.2522958, 47.438458700000012 ] } },
{ "type": "Feature", "properties": { "place_id": "ChIJI81iJ-XcQUcRJBrUiAu2sug", "rating": 4.3, "nr_ratings": 201.0 }, "geometry": { "type": "Point", "coordinates": [ 19.0843423, 47.4806896 ] } },
{ "type": "Feature", "properties": { "place_id": "ChIJfQsVKf_cQUcRPBuQW1Dk5t8", "rating": null, "nr_ratings": null }, "geometry": { "type": "Point", "coordinates": [ 19.07115, 47.4799099 ] } },
{ "type": "Feature", "properties": { "place_id": "ChIJb-Hc3PncQUcR1tJowe9YSy8", "rating": 3.9, "nr_ratings": 439.0 }, "geometry": { "type": "Point", "coordinates": [ 19.0757714, 47.4841268 ] } },
{ "type": "Feature", "properties": { "place_id": "ChIJozExzGrdQUcRJ_l7IIH4p_8", "rating": 4.4, "nr_ratings": 22.0 }, "geometry": { "type": "Point", "coordinates": [ 19.0788421, 47.4815183 ] } },
{ "type": "Feature", "properties": { "place_id": "ChIJDyBZdTr3aUcRH4-KTwHAkUE", "rating": 5.0, "nr_ratings": 3.0 }, "geometry": { "type": "Point", "coordinates": [ 19.0798688, 47.4765827 ] } },
{ "type": "Feature", "properties": { "place_id": "ChIJA4-jB_3cQUcRrHJDcUEApP0", "rating": null, "nr_ratings": null }, "geometry": { "type": "Point", "coordinates": [ 19.0766007, 47.476428 ] } },
{ "type": "Feature", "properties": { "place_id": "ChIJZYjZdPncQUcRUVEhrZUqrO4", "rating": null, "nr_ratings": null }, "geometry": { "type": "Point", "coordinates": [ 19.075038, 47.482086 ] } },
{ "type": "Feature", "properties": { "place_id": "ChIJK4MlBP3cQUcRNlWnFaTqfts", "rating": 3.7, "nr_ratings": 10.0 }, "geometry": { "type": "Point", "coordinates": [ 19.0768276, 47.475908 ] } },
{ "type": "Feature", "properties": { "place_id": "ChIJWVb1lEvdQUcR7IegMTmQ7p8", "rating": 4.8, "nr_ratings": 63.0 }, "geometry": { "type": "Point", "coordinates": [ 19.0727431, 47.482887 ] } },
{ "type": "Feature", "properties": { "place_id": "ChIJpZT_C5TdQUcRJhINoSiZaDs", "rating": 5.0, "nr_ratings": 4.0 }, "geometry": { "type": "Point", "coordinates": [ 19.0742554, 47.4841507 ] } },
{ "type": "Feature", "properties": { "place_id": "ChIJFTHrRlDbQUcRS8ZUiDsc9D4", "rating": 4.2, "nr_ratings": 64.0 }, "geometry": { "type": "Point", "coordinates": [ 19.1378616, 47.513198 ] } },
{ "type": "Feature", "properties": { "place_id": "ChIJY_KfyLXfQUcRFrblN6d-vfw", "rating": 4.3, "nr_ratings": 214.0 }, "geometry": { "type": "Point", "coordinates": [ 18.9665649, 47.5027237 ] } },
{ "type": "Feature", "properties": { "place_id": "ChIJVRvMJZPCQUcRIfk0fw2cj80", "rating": 3.5, "nr_ratings": 2.0 }, "geometry": { "type": "Point", "coordinates": [ 19.1409364, 47.4424139 ] } },
{ "type": "Feature", "properties": { "place_id": "ChIJjbAYdW7ZQUcRnj4AqpFnPko", "rating": 5.0, "nr_ratings": 5.0 }, "geometry": { "type": "Point", "coordinates": [ 19.0358362, 47.5512786 ] } },
{ "type": "Feature", "properties": { "place_id": "ChIJm7JwvWvZQUcRaiZ3dYrS6Hs", "rating": 4.2, "nr_ratings": 44.0 }, "geometry": { "type": "Point", "coordinates": [ 19.0302533, 47.5472374 ] } },
{ "type": "Feature", "properties": { "place_id": "ChIJTb56nSPZQUcR3i4LSHg91dw", "rating": null, "nr_ratings": null }, "geometry": { "type": "Point", "coordinates": [ 19.0420209, 47.5509814 ] } },
{ "type": "Feature", "properties": { "place_id": "ChIJNWsf57DZQUcRqe-x7x25HeA", "rating": 3.9, "nr_ratings": 44.0 }, "geometry": { "type": "Point", "coordinates": [ 19.0657978, 47.5787943 ] } },
{ "type": "Feature", "properties": { "place_id": "ChIJv0wxANTEQUcRFI6qtc_TrAA", "rating": null, "nr_ratings": null }, "geometry": { "type": "Point", "coordinates": [ 19.1723876, 47.534321 ] } },
{ "type": "Feature", "properties": { "place_id": "ChIJX9tJNuncQUcRV8zeWGi2J0Q", "rating": 4.1, "nr_ratings": 88.0 }, "geometry": { "type": "Point", "coordinates": [ 19.0940017, 47.4852569 ] } },
{ "type": "Feature", "properties": { "place_id": "ChIJd9zT1vDcQUcRl06yZoIWnyY", "rating": null, "nr_ratings": null }, "geometry": { "type": "Point", "coordinates": [ 19.0801831, 47.4861852 ] } },
{ "type": "Feature", "properties": { "place_id": "ChIJXWuIne3cQUcRsw12zPONPYo", "rating": 4.3, "nr_ratings": 35.0 }, "geometry": { "type": "Point", "coordinates": [ 19.090401, 47.4898896 ] } },
{ "type": "Feature", "properties": { "place_id": "ChIJ85ELfJ3YQUcRDLiCehV6h0E", "rating": null, "nr_ratings": null }, "geometry": { "type": "Point", "coordinates": [ 18.949321, 47.565302 ] } },
{ "type": "Feature", "properties": { "place_id": "ChIJfxKPp8zbQUcRmB4fyaVXKiA", "rating": 4.5, "nr_ratings": 2.0 }, "geometry": { "type": "Point", "coordinates": [ 19.07909, 47.558636 ] } },
{ "type": "Feature", "properties": { "place_id": "ChIJ4amCnhDDQUcRNV_YC4aluss", "rating": 3.7, "nr_ratings": 10.0 }, "geometry": { "type": "Point", "coordinates": [ 19.1597393, 47.469705 ] } },
{ "type": "Feature", "properties": { "place_id": "ChIJudEQcBrDQUcR0shMeuVrVUI", "rating": 4.3, "nr_ratings": 148.0 }, "geometry": { "type": "Point", "coordinates": [ 19.1597421, 47.4696271 ] } },
{ "type": "Feature", "properties": { "place_id": "ChIJvUu_oZ_DQUcR8Rydrfjfh6w", "rating": null, "nr_ratings": null }, "geometry": { "type": "Point", "coordinates": [ 19.1591456, 47.4694037 ] } },
{ "type": "Feature", "properties": { "place_id": "ChIJ-z83xmXDQUcRvzR7MyKnubE", "rating": null, "nr_ratings": null }, "geometry": { "type": "Point", "coordinates": [ 19.1589643, 47.470009499999989 ] } },
{ "type": "Feature", "properties": { "place_id": "ChIJz9nNSF7cQUcR6vrdTyoGsPM", "rating": 4.7, "nr_ratings": 628.0 }, "geometry": { "type": "Point", "coordinates": [ 19.0729222, 47.4937932 ] } },
{ "type": "Feature", "properties": { "place_id": "ChIJnXJVEF7cQUcRBRNjfpuXOhw", "rating": 4.7, "nr_ratings": 423.0 }, "geometry": { "type": "Point", "coordinates": [ 19.0718047, 47.49477 ] } },
{ "type": "Feature", "properties": { "place_id": "ChIJVZgz413cQUcRGf5vOqB5X24", "rating": 4.7, "nr_ratings": 384.0 }, "geometry": { "type": "Point", "coordinates": [ 19.0706983, 47.495081 ] } },
{ "type": "Feature", "properties": { "place_id": "ChIJS33HNGLcQUcRA3arHvF_Xec", "rating": 4.4, "nr_ratings": 193.0 }, "geometry": { "type": "Point", "coordinates": [ 19.0745377, 47.4973476 ] } },
{ "type": "Feature", "properties": { "place_id": "ChIJJawMA1_cQUcRFDrrd07AGy8", "rating": 4.4, "nr_ratings": 292.0 }, "geometry": { "type": "Point", "coordinates": [ 19.0732486, 47.4923891 ] } },
{ "type": "Feature", "properties": { "place_id": "ChIJHcFKL2HcQUcRDkoRDcHbriw", "rating": 4.7, "nr_ratings": 574.0 }, "geometry": { "type": "Point", "coordinates": [ 19.0735466, 47.4982841 ] } },
{ "type": "Feature", "properties": { "place_id": "ChIJCY9LzWbcQUcR-hN_CLwMp8E", "rating": null, "nr_ratings": null }, "geometry": { "type": "Point", "coordinates": [ 19.0731685, 47.498303 ] } },
{ "type": "Feature", "properties": { "place_id": "ChIJ3e4wCmfcQUcRQhZlcLEHkIc", "rating": 4.0, "nr_ratings": 701.0 }, "geometry": { "type": "Point", "coordinates": [ 19.0692113, 47.4976725 ] } },
{ "type": "Feature", "properties": { "place_id": "ChIJ47P1CGfcQUcR2b-GukfqYg0", "rating": 4.2, "nr_ratings": 36.0 }, "geometry": { "type": "Point", "coordinates": [ 19.0692942, 47.4978041 ] } },
{ "type": "Feature", "properties": { "place_id": "ChIJP6rupmfcQUcR8F1hw5DFEEU", "rating": 3.9, "nr_ratings": 111.0 }, "geometry": { "type": "Point", "coordinates": [ 19.0690344, 47.4978451 ] } },
{ "type": "Feature", "properties": { "place_id": "ChIJP3XyoWfcQUcRJZkIP6TioOQ", "rating": 4.1, "nr_ratings": 1122.0 }, "geometry": { "type": "Point", "coordinates": [ 19.0684167, 47.4974772 ] } },
{ "type": "Feature", "properties": { "place_id": "ChIJ9WWwh2fcQUcRYZl1IJSbtPw", "rating": 4.0, "nr_ratings": 2311.0 }, "geometry": { "type": "Point", "coordinates": [ 19.0671808, 47.4963701 ] } },
{ "type": "Feature", "properties": { "place_id": "ChIJDZ_TXWbcQUcRoDV0dVawSS4", "rating": 4.2, "nr_ratings": 436.0 }, "geometry": { "type": "Point", "coordinates": [ 19.0694302, 47.4993674 ] } },
{ "type": "Feature", "properties": { "place_id": "ChIJjT0vtGfcQUcREDc9QJmKy48", "rating": 4.2, "nr_ratings": 9.0 }, "geometry": { "type": "Point", "coordinates": [ 19.0676917, 47.498416 ] } },
{ "type": "Feature", "properties": { "place_id": "ChIJY8wVXWbcQUcR329enLJ4r9w", "rating": 3.7, "nr_ratings": 870.0 }, "geometry": { "type": "Point", "coordinates": [ 19.0695648, 47.4995994 ] } },
{ "type": "Feature", "properties": { "place_id": "ChIJ7STkBundQUcRFY27dpfWIyc", "rating": 4.7, "nr_ratings": 46.0 }, "geometry": { "type": "Point", "coordinates": [ 19.0711794, 47.49523 ] } },
{ "type": "Feature", "properties": { "place_id": "ChIJXxedNOHdQUcRvA4Ut0sxWbk", "rating": 5.0, "nr_ratings": 13.0 }, "geometry": { "type": "Point", "coordinates": [ 19.0745377, 47.4973476 ] } },
{ "type": "Feature", "properties": { "place_id": "ChIJlwqNLmfcQUcRuE3tMr82Dus", "rating": null, "nr_ratings": null }, "geometry": { "type": "Point", "coordinates": [ 19.071701, 47.497693 ] } },
{ "type": "Feature", "properties": { "place_id": "ChIJI2IRufXdQUcRZ1Ftt7Dn3Cg", "rating": null, "nr_ratings": null }, "geometry": { "type": "Point", "coordinates": [ 19.0729295, 47.4979879 ] } },
{ "type": "Feature", "properties": { "place_id": "ChIJQ8PfJvTdQUcRB-K6nRXoqXA", "rating": null, "nr_ratings": null }, "geometry": { "type": "Point", "coordinates": [ 19.0696323, 47.4962647 ] } },
{ "type": "Feature", "properties": { "place_id": "ChIJM2d0muPdQUcRsASLGaL9d8E", "rating": 4.9, "nr_ratings": 43.0 }, "geometry": { "type": "Point", "coordinates": [ 19.0691499, 47.4953069 ] } },
{ "type": "Feature", "properties": { "place_id": "ChIJb9lGYmfcQUcRRhnZtEHk90g", "rating": 4.0, "nr_ratings": 4.0 }, "geometry": { "type": "Point", "coordinates": [ 19.069139, 47.496119 ] } },
{ "type": "Feature", "properties": { "place_id": "ChIJmybQRtbdQUcRttg5-J06AQk", "rating": null, "nr_ratings": null }, "geometry": { "type": "Point", "coordinates": [ 19.0693061, 47.4968298 ] } },
{ "type": "Feature", "properties": { "place_id": "ChIJS18TGPvdQUcRop5zSA4Flww", "rating": 5.0, "nr_ratings": 2.0 }, "geometry": { "type": "Point", "coordinates": [ 19.0731975, 47.4920891 ] } },
{ "type": "Feature", "properties": { "place_id": "ChIJozoPFl3dQUcRBMJv3-iXbUA", "rating": 3.9, "nr_ratings": 8.0 }, "geometry": { "type": "Point", "coordinates": [ 19.0691133, 47.4976944 ] } },
{ "type": "Feature", "properties": { "place_id": "ChIJNRH0gmfcQUcRLJQHH6MV9Bc", "rating": 4.4, "nr_ratings": 42.0 }, "geometry": { "type": "Point", "coordinates": [ 19.0681316, 47.496682799999988 ] } },
{ "type": "Feature", "properties": { "place_id": "ChIJIRnkBmfcQUcRa5wPiCYYoGY", "rating": 4.1, "nr_ratings": 9.0 }, "geometry": { "type": "Point", "coordinates": [ 19.0690763, 47.4978694 ] } },
{ "type": "Feature", "properties": { "place_id": "ChIJXeQsMVDdQUcRJzZe_NZGChI", "rating": 5.0, "nr_ratings": 1.0 }, "geometry": { "type": "Point", "coordinates": [ 19.0682945, 47.4973241 ] } },
{ "type": "Feature", "properties": { "place_id": "ChIJBa1F77zdQUcRfg3B6r2qD1E", "rating": 4.3, "nr_ratings": 46.0 }, "geometry": { "type": "Point", "coordinates": [ 19.0682945, 47.4973241 ] } },
{ "type": "Feature", "properties": { "place_id": "ChIJn4y8drbdQUcResKHSDxrYEo", "rating": 1.0, "nr_ratings": 4.0 }, "geometry": { "type": "Point", "coordinates": [ 19.0686969, 47.4977584 ] } },
{ "type": "Feature", "properties": { "place_id": "ChIJh9wQhKfdQUcR-tV6F6werPQ", "rating": 4.5, "nr_ratings": 4.0 }, "geometry": { "type": "Point", "coordinates": [ 19.0699872, 47.4986149 ] } },
{ "type": "Feature", "properties": { "place_id": "ChIJfSXRqWfcQUcRGpxXwfMzDjA", "rating": null, "nr_ratings": null }, "geometry": { "type": "Point", "coordinates": [ 19.0691592, 47.498140199999987 ] } },
{ "type": "Feature", "properties": { "place_id": "ChIJR39o3h3dQUcRszFZcw1tY2Y", "rating": 4.3, "nr_ratings": 380.0 }, "geometry": { "type": "Point", "coordinates": [ 19.0699599, 47.4986326 ] } },
{ "type": "Feature", "properties": { "place_id": "ChIJJQY8pmfcQUcRu-aPI4PvQcI", "rating": 3.9, "nr_ratings": 19.0 }, "geometry": { "type": "Point", "coordinates": [ 19.0688122, 47.4979228 ] } },
{ "type": "Feature", "properties": { "place_id": "ChIJdc3BtMPdQUcR1X2CmcPpWP8", "rating": 3.0, "nr_ratings": 4.0 }, "geometry": { "type": "Point", "coordinates": [ 19.0689695, 47.492459 ] } },
{ "type": "Feature", "properties": { "place_id": "ChIJHb82r2fcQUcRkdLCbz6Sw78", "rating": null, "nr_ratings": null }, "geometry": { "type": "Point", "coordinates": [ 19.068432, 47.497781 ] } },
{ "type": "Feature", "properties": { "place_id": "ChIJp_cSVWbcQUcRhjBcQIHSwrA", "rating": 4.1, "nr_ratings": 193.0 }, "geometry": { "type": "Point", "coordinates": [ 19.0694814, 47.4986129 ] } },
{ "type": "Feature", "properties": { "place_id": "ChIJyXqEr2fcQUcRTQpkClfq_bA", "rating": 4.6, "nr_ratings": 13.0 }, "geometry": { "type": "Point", "coordinates": [ 19.0685005, 47.4980614 ] } },
{ "type": "Feature", "properties": { "place_id": "ChIJ8cXrpmfcQUcRt_1VVSzTUY4", "rating": 4.1, "nr_ratings": 230.0 }, "geometry": { "type": "Point", "coordinates": [ 19.0675379, 47.4972256 ] } },
{ "type": "Feature", "properties": { "place_id": "ChIJJzsC0DLdQUcRWYE85CFcxE4", "rating": 4.7, "nr_ratings": 44.0 }, "geometry": { "type": "Point", "coordinates": [ 19.0722871, 47.4997342 ] } },
{ "type": "Feature", "properties": { "place_id": "ChIJP4Ki9WbcQUcRNFrJyhMchDg", "rating": null, "nr_ratings": null }, "geometry": { "type": "Point", "coordinates": [ 19.0703616, 47.499383599999987 ] } },
{ "type": "Feature", "properties": { "place_id": "ChIJ6xLGhPXdQUcRlN7ZqOEbIjA", "rating": 4.3, "nr_ratings": 62.0 }, "geometry": { "type": "Point", "coordinates": [ 19.0666648, 47.4957134 ] } },
{ "type": "Feature", "properties": { "place_id": "ChIJ9yPoiaLdQUcRPRJo9cdruRs", "rating": 5.0, "nr_ratings": 8.0 }, "geometry": { "type": "Point", "coordinates": [ 19.0722187, 47.4907278 ] } },
{ "type": "Feature", "properties": { "place_id": "ChIJp8W6WGbcQUcRzGiinI_HaIY", "rating": 4.2, "nr_ratings": 615.0 }, "geometry": { "type": "Point", "coordinates": [ 19.0698574, 47.4994264 ] } },
{ "type": "Feature", "properties": { "place_id": "ChIJB6qpdOTdQUcRw84JkwZVdQo", "rating": null, "nr_ratings": null }, "geometry": { "type": "Point", "coordinates": [ 19.0669766, 47.4933619 ] } },
{ "type": "Feature", "properties": { "place_id": "ChIJkdJhi8zdQUcRMLhu9TWKVUA", "rating": 4.3, "nr_ratings": 43.0 }, "geometry": { "type": "Point", "coordinates": [ 19.0722999, 47.500331 ] } },
{ "type": "Feature", "properties": { "place_id": "ChIJg0E7N0TdQUcRODdY0KB0-HI", "rating": null, "nr_ratings": null }, "geometry": { "type": "Point", "coordinates": [ 19.0676229, 47.495064199999987 ] } },
{ "type": "Feature", "properties": { "place_id": "ChIJcQewo4rcQUcROeYXCcJyebE", "rating": null, "nr_ratings": null }, "geometry": { "type": "Point", "coordinates": [ 19.0793658, 47.495362 ] } },
{ "type": "Feature", "properties": { "place_id": "ChIJ2XV54EvdQUcRgBiYeCWEfY8", "rating": null, "nr_ratings": null }, "geometry": { "type": "Point", "coordinates": [ 19.0686969, 47.4977584 ] } },
{ "type": "Feature", "properties": { "place_id": "ChIJfSoPo13cQUcRmZ4Kf-Emuo0", "rating": null, "nr_ratings": null }, "geometry": { "type": "Point", "coordinates": [ 19.067379, 47.4947269 ] } },
{ "type": "Feature", "properties": { "place_id": "ChIJrcXirA7dQUcRLuzTHe8Mfzo", "rating": 4.8, "nr_ratings": 130.0 }, "geometry": { "type": "Point", "coordinates": [ 19.068391, 47.492934 ] } },
{ "type": "Feature", "properties": { "place_id": "ChIJpdTSY13cQUcRRBJta7orLMg", "rating": null, "nr_ratings": null },